agency_name,city,state,agency_type,agency_latitude,agency_longitude,ft_sworn,agency_population,validated_week_name,record_month,validated_day,record_year
Hiram Police Department,Hiram,GA,Local Police Department,33.875782,-84.7609,15,17,Tuesday,August,14,2018
Glennville Police Department,Glennville,GA,Local Police Department,31.935284,-81.9305,8,13,Wednesday,August,15,2018
Simmesport Police Department,Simmesport,LA,Local Police Department,30.9865,-91.81063,7,7,Tuesday,February,12,2019
Sebewaing Police Department,Sebewaing,MI,Local Police Department,43.732037,-83.45327,3,3,Wednesday,February,6,2019
Michigan Senate Police Department,Lansing,MI,Special Jurisdiction,42.73233,-84.55355,8,9,Wednesday,February,6,2019
Fowlerville Police Department,Fowlerville,MI,Local Police Department,42.65931,-84.07282,6,6,Wednesday,February,6,2019
Ionia Department Of Public Safety,Ionia,MI,Local Police Department,42.981857,-85.05799,17,19,Wednesday,February,6,2019
Olive Hill Police Department,Olive Hill,KY,Local Police Department,38.294827,-83.18505,5,5,Friday,August,10,2018
Bridgeport Township Police Department,Bridgeport,MI,Local Police Department,43.355675,-83.8802,9,10,Thursday,February,7,2019
Calumet Police Department,Calumet,MI,Local Police Department,47.24779,-88.45336,1,1,Wednesday,February,6,2019
Vanceburg Police Department,Vanceburg,KY,Local Police Department,38.600163,-83.31512,6,-999,Friday,August,10,2018
Tawas Police Authority,East Tawas,MI,Local Police Department,44.279488,-83.50033,6,7,Wednesday,February,6,2019
Crittenden County Sheriffs Office,Marion,KY,Sheriff'S Office,37.332596,-88.08177,3,4,Friday,August,10,2018
Grand Rapids Police Department - Training Unit,Grand Rapids,MI,Local Police Department,42.963577,-85.66853,319,387,Wednesday,February,6,2019
Howell Police Department,Howell,MI,Local Police Department,42.604607,-83.92357,19,21,Wednesday,February,6,2019
South Rockwood Police Department,South Rockwood,MI,Local Police Department,42.0622,-83.271675,4,4,Thursday,February,7,2019
Kenton County Police Department,Independence,KY,Local Police Department,38.910404,-84.54539,36,58,Friday,August,10,2018
New Carrollton City Police Department,New Carrollton,MD,Local Police Department,38.964725,-76.86532,12,15,Wednesday,August,8,2018
Park Hills Police Department,Covington,KY,Local Police Department,39.071487,-84.533325,6,6,Friday,August,10,2018
Bowie Police Department,Bowie,MD,Local Police Department,38.96154,-76.74121,45,52,Wednesday,August,8,2018
Richmond Police Department,Richmond,MI,Local Police Department,42.81027,-82.747314,9,12,Wednesday,February,6,2019
Owingsville Police Department,Owingsville,KY,Local Police Department,38.143764,-83.7705,5,5,Monday,August,13,2018
Snow Hill Police Department,Snowhill,MD,Local Police Department,38.176964,-75.39473,8,9,Wednesday,August,8,2018
Greensburg Police Department,Greensburg,KY,Local Police Department,37.26239,-85.501915,7,7,Monday,August,13,2018
City Of Fulton Police Department,Fulton,KY,Local Police Department,36.51139,-88.87627,10,14,Monday,August,13,2018
Kokomo Police Department,Kokomo,IN,Local Police Department,40.48612,-86.12956,100,147,Tuesday,August,28,2018
Madison County Sheriffs Department / Madison County Jail,Anderson,IN,Sheriff'S Office,40.10847,-85.676636,51,106,Tuesday,August,28,2018
Brewer Police Department,Brewer,ME,Local Police Department,44.78048,-68.760895,21,23,Thursday,March,7,2019
Lathrup Village Police Department,Lathrup Village,MI,Local Police Department,42.491467,-83.22136,7,7,Thursday,February,7,2019
Anderson Police Department,Anderson,IN,Local Police Department,40.10567,-85.67778,117,139,Tuesday,August,28,2018
Jackson County Sheriffs Office,Holton,KS,Sheriff'S Office,39.4613,-95.74712,15,26,Tuesday,August,21,2018
Swans Island Police Department,Swan'S Island,ME,Local Police Department,44.1545,-68.45151,1,1,Thursday,March,7,2019
Lincoln County Sheriffs Department,Wiscasset,ME,Sheriff'S Office,44.00471,-69.66962,28,30,Thursday,March,7,2019
Bar Harbor Police Department,Bar Harbor,ME,Local Police Department,44.388226,-68.205864,9,13,Thursday,March,7,2019
Wixom Police Department,Wixom,MI,Local Police Department,42.52376,-83.53269,20,24,Thursday,February,7,2019
South Lyon Police Department,South Lyon,MI,Local Police Department,42.46121,-83.654106,18,20,Thursday,February,7,2019
Caribou Police Department,Caribou,ME,Local Police Department,46.860363,-68.01103,14,15,Thursday,March,7,2019
Mount Vernon Police Department,Mount Vernon,KY,Local Police Department,37.35447,-84.340294,8,8,Monday,August,13,2018
Carson City Police Department,Carson City,MI,Local Police Department,43.177273,-84.8455,2,2,Thursday,February,7,2019
Greenville Department Of Public Safety,Greenville,MI,Local Police Department,43.176785,-85.25359,17,20,Thursday,February,7,2019
Westbrook Police Department,Westbrook,ME,Local Police Department,43.679226,-70.353874,35,38,Thursday,March,7,2019
Cape Elizabeth Police Department,Cape Elizabeth,ME,Local Police Department,43.59444,-70.227715,13,17,Thursday,March,7,2019
Elkton Police Department,Elkton,KY,Local Police Department,36.809853,-87.15364,7,7,Monday,August,13,2018
Lake Linden Police Department,Lake Linden,MI,Local Police Department,47.192158,-88.40888,1,1,Wednesday,February,6,2019
Hardin County Sheriffs Department,Elizabethtown,KY,Sheriff'S Office,37.692974,-85.85805,33,44,Monday,August,13,2018
Watsonville Police Department,Watsonville,CA,Local Police Department,36.908623,-121.75385,64,87,Wednesday,July,18,2018
Manteca Police Department,Manteca,CA,Local Police Department,37.799778,-121.23207,76,110,Wednesday,July,18,2018
Fort Bragg Police Department,Fort Bragg,CA,Local Police Department,39.43234,-123.803856,17,23,Wednesday,July,18,2018
Bremer County Sheriffs Office / Bremer County Jail,Waverly,IA,Sheriff'S Office,42.726532,-92.465996,11,28,Friday,August,24,2018
Charles City Police Department,Charles City,IA,Local Police Department,43.06605,-92.677315,14,21,Monday,August,27,2018
Sutherland Police Department,Sutherland,IA,Local Police Department,42.970814,-95.50001,1,1,Monday,August,27,2018
Pomeroy Police Department,Pomeroy,IA,Local Police Department,42.550575,-94.684425,1,1,Monday,August,27,2018
Scott County Sheriffs Office / Scott County Jail,Davenport,IA,Sheriff'S Office,41.52385,-90.5792,44,167,Monday,August,27,2018
Ottumwa Police Department,Ottumwa,IA,Local Police Department,41.020588,-92.4155,36,43,Monday,August,27,2018
Panora Police Department,Panora,IA,Local Police Department,41.69325,-94.35806,3,3,Monday,August,27,2018
Osceola Police Department,Osceola,IA,Local Police Department,41.04468,-93.76325,9,10,Monday,August,27,2018
Preston Police Department,Preston,IA,Local Police Department,42.05046,-90.394226,1,1,Monday,August,27,2018
De Witt Police Department,De Witt,IA,Local Police Department,41.824318,-90.53935,10,18,Monday,August,27,2018
Dubuque Police Department,Dubuque,IA,Local Police Department,42.5016,-90.665474,100,106,Wednesday,August,22,2018
Bellevue Police Department,Bellevue,IA,Local Police Department,42.25832,-90.425804,5,5,Tuesday,August,28,2018
Mount Pleasant Police Department,Mount Pleasant,IA,Local Police Department,40.966553,-91.5563,14,16,Tuesday,August,28,2018
Linn County Sheriffs Department,Cedar Rapids,IA,Sheriff'S Office,41.97489,-91.67567,104,164,Tuesday,August,28,2018
Tama Police Department,Tama,IA,Local Police Department,41.962605,-92.58018,5,5,Tuesday,August,28,2018
Bedford City Police Department,Bedford,IA,Local Police Department,40.66777,-94.71994,3,3,Tuesday,August,28,2018
Dayton Police Department,Dayton,IA,Local Police Department,42.26088,-94.071236,1,1,Tuesday,August,28,2018
Clive Police Department,Clive,IA,Local Police Department,41.60795,-93.7347,24,27,Tuesday,August,28,2018
Columbus Junction Police Department,Columbus Junction,IA,Local Police Department,41.279278,-91.36204,4,4,Wednesday,August,29,2018
Muscatine Police Department,Muscatine,IA,Local Police Department,41.424862,-91.04546,39,43,Wednesday,August,29,2018
Belmond Police Department,Belmond,IA,Local Police Department,42.84662,-93.613945,5,5,Wednesday,August,29,2018
Le Claire Police Department,Le Claire,IA,Local Police Department,41.595406,-90.34419,7,8,Wednesday,August,29,2018
Manly Police Department,Manly,IA,Local Police Department,43.28426,-93.20133,3,3,Wednesday,August,29,2018
Council Bluffs Police Department,Council Bluffs,IA,Local Police Department,41.25729,-95.85261,105,124,Wednesday,August,29,2018
Groton Long Point Police Department,Groton,CT,Local Police Department,41.312485,-72.01002,6,6,Thursday,July,26,2018
Sunny Isles Beach Police Department,Sunny Isles Beach,FL,Local Police Department,25.942583,-80.12156,45,58,Wednesday,May,30,2018
Gilcrest Police Department,Gilcrest,CO,Local Police Department,40.28341,-104.777275,3,3,Friday,May,25,2018
Assumption Parish Sheriffs Department,Napoleonville,LA,Sheriff'S Office,29.941116,-91.02432,50,78,Tuesday,February,12,2019
Louisiana State Police,Baton Rouge,LA,Primary State Agency,30.449581,-91.105675,1215,1721,Thursday,February,14,2019
Chino Police Department,Chino,CA,Local Police Department,34.012608,-117.690926,96,142,Thursday,July,19,2018
Oceanside Police Department,Oceanside,CA,Local Police Department,33.22588,-117.32868,210,308,Thursday,July,19,2018
Stallion Springs Police Department,Tehachapi,CA,Local Police Department,35.08306,-118.62568,3,3,Thursday,July,19,2018
Bakersfield Police Department,Bakersfield,CA,Local Police Department,35.373127,-119.02058,348,483,Thursday,July,19,2018
Berkeley Police Department,Berkeley,CA,Local Police Department,37.870216,-122.27325,186,290,Thursday,July,19,2018
Colma Police Department,Colma,CA,Local Police Department,37.677155,-122.45836,18,25,Thursday,July,19,2018
Madera Police Department,Madera,CA,Local Police Department,36.960518,-120.05501,60,82,Thursday,July,19,2018
Harlan Police Department,Harlan,IA,Local Police Department,41.656563,-95.31983,8,9,Wednesday,August,29,2018
Oskaloosa Police Department,Oskaloosa,IA,Local Police Department,41.295033,-92.64288,17,19,Wednesday,August,22,2018
Windsor Heights Police Department,Windsor Heights,IA,Local Police Department,41.599167,-93.708145,13,15,Wednesday,August,29,2018
Odebolt Police Department,Odebolt,IA,Local Police Department,42.312305,-95.252495,1,1,Wednesday,August,29,2018
Davenport City Police Department,Davenport,IA,Local Police Department,41.52396,-90.577576,166,215,Wednesday,August,29,2018
Ames Police Department,Ames,IA,Local Police Department,42.026382,-93.61744,51,73,Wednesday,August,29,2018
Forest City Police Department,Forest City,IA,Local Police Department,43.267868,-93.63623,9,9,Wednesday,August,29,2018
Okoboji Police Department,Okoboji,IA,Local Police Department,43.380352,-95.131134,4,4,Wednesday,August,29,2018
Prairie City Police Department,Prairie City,IA,Local Police Department,41.598225,-93.23423,3,3,Wednesday,August,29,2018
Guttenberg Police Department,Guttenberg,IA,Local Police Department,42.781445,-91.09648,4,4,Wednesday,August,29,2018
Iowa Department Of Public Safety,Des Moines,IA,Primary State Agency,41.588272,-93.607346,669,983,Wednesday,August,29,2018
Toluca Police Department,Toluca,IL,Local Police Department,41.001255,-89.13445,1,1,Monday,November,12,2018
Effingham Water Authority Police Department,Effingham,IL,Special Jurisdiction,39.124844,-88.62124,0,0,Monday,November,5,2018
Rawlins County Sheriffs Office / Rawlins County Jail,Atwood,KS,Sheriff'S Office,39.808228,-101.03963,3,4,Wednesday,August,22,2018
Wamego Police Department,Wamego,KS,Local Police Department,39.201557,-96.30622,8,13,Wednesday,August,22,2018
Dyer Police Department,Dyer,IN,Local Police Department,41.492283,-87.52224,26,35,Tuesday,August,28,2018
Crown Point Police Department,Crown Point,IN,Local Police Department,41.418602,-87.36286,40,53,Tuesday,August,28,2018
Emmett Police Department,Emmett,ID,Local Police Department,43.875324,-116.49416,13,14,Wednesday,September,5,2018
Monroeville Police Department,Monroeville,IN,Local Police Department,40.974342,-84.86932,1,1,Tuesday,August,28,2018
Munster Police Department,Munster,IN,Local Police Department,41.56238,-87.50388,39,49,Tuesday,August,28,2018
Lowell Police Department,Lowell,IN,Local Police Department,41.290863,-87.408,14,19,Tuesday,August,28,2018
Troy Police Department,Troy,KS,Local Police Department,39.786427,-95.09084,1,1,Thursday,August,23,2018
La Crosse Police Department,La Crosse,KS,Local Police Department,38.53404,-99.30987,3,3,Thursday,August,23,2018
Walton Police Department,Walton,KS,Local Police Department,38.118103,-97.256546,1,1,Thursday,August,23,2018
Jackson County Sheriffs Office / Jackson County Jail,Brownstown,IN,Sheriff'S Office,38.87447,-86.036285,14,52,Tuesday,August,28,2018
Brunswick Police Department,Brunswick,MD,Local Police Department,39.31305,-77.62576,8,10,Thursday,August,9,2018
Wyoming Police Department,Wyoming,IL,Local Police Department,41.06143,-89.76857,2,2,Friday,November,16,2018
Cheyenne County Sheriffs Office,Saint Francis,KS,Sheriff'S Office,39.774555,-101.79954,4,4,Wednesday,August,22,2018
Hyden Police Department,Hyden,KY,Local Police Department,37.16195,-83.374245,3,3,Monday,August,13,2018
Concordia Police Department,Concordia,KS,Local Police Department,39.571827,-97.66497,11,17,Thursday,August,23,2018
Lane County Sheriffs Office / Lane County Jail,Dighton,KS,Sheriff'S Office,38.481384,-100.46521,5,10,Thursday,August,23,2018
Humboldt Police Department,Humboldt,KS,Local Police Department,37.81098,-95.437195,6,6,Thursday,August,23,2018
Lewis County Sheriffs Office / Lewis County Jail,Nezperce,ID,Sheriff'S Office,46.233315,-116.240906,6,18,Wednesday,September,5,2018
Teton County Sheriffs Office,Driggs,ID,Sheriff'S Office,43.724216,-111.11059,6,16,Wednesday,September,5,2018
Bellevue Police Department,Bellevue,MI,Local Police Department,42.445057,-85.018326,2,2,Wednesday,February,6,2019
Zilwaukee Police Department,Saginaw,MI,Local Police Department,43.47907,-83.920456,2,2,Thursday,February,7,2019
Tittabawassee Township Police Department,Freeland,MI,Local Police Department,43.523705,-84.118996,5,6,Thursday,February,7,2019
Owyhee County Sheriffs Office / Owyhee County Jail,Murphy,ID,Sheriff'S Office,43.21689,-116.55101,18,25,Wednesday,September,5,2018
Denmark Township Police Department,Richville,MI,Local Police Department,43.40892,-83.67537,1,1,Tuesday,February,12,2019
Ashland Police Department,Ashland,IL,Local Police Department,39.888947,-90.006714,1,1,Tuesday,October,30,2018
Saint Marys County Sheriffs Office,Leonardtown,MD,Sheriff'S Office,38.304565,-76.628845,120,244,Thursday,August,9,2018
Leslie Police Department,Leslie,MI,Local Police Department,42.450294,-84.43103,3,3,Wednesday,February,6,2019
Thomas Township Police Department,Saginaw,MI,Local Police Department,43.418633,-84.07545,7,8,Thursday,February,7,2019
Oak Lawn Police Department,Oak Lawn,IL,Local Police Department,41.720577,-87.75384,106,128,Thursday,November,1,2018
Coffeen Police Department,Coffeen,IL,Local Police Department,39.090523,-89.39084,1,1,Tuesday,November,13,2018
Montpelier Police Department,Montpelier,ID,Local Police Department,42.31803,-111.302,5,5,Friday,August,31,2018
Morrisonville Police Department,Morrisonville,IL,Local Police Department,39.41995,-89.45505,1,1,Tuesday,October,30,2018
Custer County Sheriffs Office / Custer County Jail,Challis,ID,Sheriff'S Office,44.504963,-114.23078,8,14,Friday,August,31,2018
Edinburgh Police Department,Edinburgh,IN,Local Police Department,39.3529,-85.96814,10,15,Thursday,August,30,2018
Greene County Sheriff / Greene County Jail,Bloomfield,IN,Sheriff'S Office,39.02447,-86.92836,14,51,Friday,August,31,2018
Corydon Police Department,Corydon,IN,Local Police Department,38.211006,-86.12753,7,7,Friday,August,31,2018
Arcadia Police Department,Arcadia,IN,Local Police Department,40.17601,-86.02365,4,4,Friday,August,31,2018
Douglas County Sheriff Department / Douglas County Jail,Tuscola,IL,Sheriff'S Office,39.79105,-88.29123,13,30,Thursday,November,1,2018
Franklin County Sheriffs Office,Preston,ID,Sheriff'S Office,42.095856,-111.8781,10,13,Friday,August,31,2018
Ponderay Police Department,Ponderay,ID,Local Police Department,48.3046,-116.547035,6,7,Friday,August,31,2018
Preston Police Department,Preston,ID,Local Police Department,42.096527,-111.87844,6,7,Wednesday,September,5,2018
Dearborn County Sheriffs Department,Lawrenceburg,IN,Sheriff'S Office,39.091026,-84.85096,29,79,Friday,August,31,2018
Winnebago County Sheriff / Winnebago County Jail,Rockford,IL,Sheriff'S Office,42.27254,-89.10006,142,426,Tuesday,November,20,2018
Warren County Sheriffs Office / Warren County Jail,Monmouth,IL,Sheriff'S Office,40.912926,-90.64912,14,28,Monday,November,19,2018
City Of Clio Police Department,Clio,MI,Local Police Department,43.176888,-83.74025,5,5,Wednesday,February,6,2019
Cadiz Police Department,Cadiz,KY,Local Police Department,36.863026,-87.83678,9,10,Friday,August,10,2018
Brown County Sheriffs Office,Nashville,IN,Sheriff'S Office,39.201626,-86.243744,13,38,Tuesday,August,28,2018
Iron River Police Department,Iron River,MI,Local Police Department,46.09178,-88.639305,7,8,Wednesday,February,6,2019
Rockford Police Department,Rockford,MI,Local Police Department,43.11961,-85.558784,10,12,Wednesday,February,6,2019
Sparta Police Department,Sparta,MI,Local Police Department,43.16034,-85.71649,5,5,Wednesday,February,6,2019
Auburn Police Department,Auburn,KY,Local Police Department,36.863182,-86.70953,2,2,Friday,August,10,2018
Bourbon County Sheriffs Department,Paris,KY,Sheriff'S Office,38.213158,-84.2499,5,6,Friday,August,10,2018
Bellevue Police Department,Bellevue,KY,Local Police Department,39.10623,-84.47868,9,10,Friday,August,10,2018
Ellinwood Police Department,Ellinwood,KS,Local Police Department,38.354534,-98.58416,5,5,Tuesday,August,21,2018
Lindsborg Police Department,Lindsborg,KS,Local Police Department,38.573215,-97.673134,6,7,Tuesday,August,21,2018
Leitchfield Police,Leitchfield,KY,Local Police Department,37.479046,-86.293594,13,14,Friday,August,10,2018
Caneyville Police Department,Caneyville,KY,Local Police Department,37.42437,-86.4858,1,1,Friday,August,10,2018
Russell Police Department,Russell,KS,Local Police Department,38.893322,-98.856514,8,21,Tuesday,August,21,2018
Mcpherson Police Department,Mcpherson,KS,Local Police Department,38.37304,-97.68415,27,33,Monday,August,20,2018
Marion Police Department,Marion,KY,Local Police Department,37.331364,-88.082054,6,8,Friday,August,10,2018
Taylor Mill Police Department,Latonia,KY,Local Police Department,39.015797,-84.49852,10,11,Friday,August,10,2018
Clarkson Police Department,Clarkson,KY,Local Police Department,37.494904,-86.222275,1,1,Friday,August,10,2018
Pikeville Police Department,Pikeville,KY,Local Police Department,37.48075,-82.51863,21,27,Friday,August,10,2018
Merriam Police Department,Merriam,KS,Local Police Department,39.01769,-94.69,28,33,Tuesday,August,21,2018
Berea City Police Department,Berea,KY,Local Police Department,37.569843,-84.2945,30,-999,Friday,August,10,2018
Rose Hill Police Department,Rose Hill,KS,Local Police Department,37.577183,-97.13643,9,11,Tuesday,August,21,2018
Johnson County Park Police,Lenexa,KS,Special Jurisdiction,38.98566,-94.78142,18,19,Tuesday,August,21,2018
Dodge City Police Department,Dodge City,KS,Local Police Department,37.75476,-100.01755,49,64,Tuesday,August,21,2018
Burden Police Department,Burden,KS,Local Police Department,37.31517,-96.75368,1,1,Tuesday,August,21,2018
Morgantown City Police Department,Morgantown,KY,Local Police Department,37.221558,-86.689575,6,6,Friday,August,10,2018
Oak Grove Police Department,Oak Grove,KY,Local Police Department,36.64119,-87.43301,14,19,Monday,August,13,2018
Morgan County Sheriffs Office,West Liberty,KY,Sheriff'S Office,37.920948,-83.2562,3,5,Monday,August,13,2018
Monroe County Sheriffs Office,Tompkinsville,KY,Sheriff'S Office,36.700752,-85.69221,2,4,Monday,August,13,2018
Ocean City Police Department,Ocean City,MD,Local Police Department,38.38826,-75.067245,107,133,Wednesday,August,8,2018
Bullitt County Sheriffs Office,Shepherdsville,KY,Sheriff'S Office,37.988064,-85.71611,40,45,Monday,August,13,2018
Adair County Sheriffs Office,Columbia,KY,Sheriff'S Office,37.102806,-85.30607,6,8,Monday,August,13,2018
Damariscotta Police Department,Damariscotta,ME,Local Police Department,44.033726,-69.518906,5,6,Thursday,March,7,2019
Bangor Police Department,Bangor,ME,Local Police Department,44.797134,-68.7729,75,90,Thursday,March,7,2019
Chesterfield Police Department,Chesterfield,IN,Local Police Department,40.112926,-85.59951,6,6,Tuesday,August,28,2018
Milford Police Department,Milford,MI,Local Police Department,42.58673,-83.58803,19,25,Thursday,February,7,2019
Gove County Sheriffs Department,Gove,KS,Sheriff'S Office,38.95818,-100.48817,4,5,Tuesday,August,21,2018
Troy Police Department,Troy,MI,Local Police Department,42.564053,-83.1555,129,183,Thursday,February,7,2019
Novi Police Department,Novi,MI,Local Police Department,42.46485,-83.48536,70,99,Thursday,February,7,2019
Brown City Police Department,Brown City,MI,Local Police Department,43.21175,-82.9877,2,2,Monday,February,11,2019
Sandusky Police Department,Sandusky,MI,Local Police Department,43.41937,-82.83086,5,5,Monday,February,11,2019
Presque Isle Police Department,Presque Isle,ME,Local Police Department,46.68876,-68.007805,19,22,Thursday,March,7,2019
Portland Police Department - Headquarters,Portland,ME,Local Police Department,43.659344,-70.25218,159,210,Thursday,March,7,2019
Gorham Police Department,Gorham,ME,Local Police Department,43.684917,-70.42922,23,25,Thursday,March,7,2019
Carleton Police Department,Carleton,MI,Local Police Department,42.059006,-83.391685,3,4,Thursday,February,7,2019
Coleman City Police Department,Coleman,MI,Local Police Department,43.757183,-84.58752,1,1,Thursday,February,7,2019
Howard City Police Department,Howard City,MI,Local Police Department,43.396,-85.468765,2,2,Thursday,February,7,2019
Lakeview Police Department,Lakeview,MI,Local Police Department,43.44296,-85.278694,2,2,Thursday,February,7,2019
Norton Shores Police Department,Norton Shores,MI,Local Police Department,43.16485,-86.26316,28,30,Thursday,February,7,2019
Roosevelt Park Police Department,Roosevelt Park,MI,Local Police Department,43.200665,-86.26529,6,6,Thursday,February,7,2019
Bad Axe Police Department,Bad Axe,MI,Local Police Department,43.80188,-82.99718,9,10,Wednesday,February,6,2019
Kalamazoo Department Of Public Safety - Headquarters,Kalamazoo,MI,Local Police Department,42.27968,-85.58163,244,299,Wednesday,February,6,2019
Junction City Police Department,Junction City,KY,Local Police Department,37.5862,-84.794266,3,3,Friday,August,10,2018
Lake Odessa Police Department,Lake Odessa,MI,Local Police Department,42.780872,-85.1385,4,4,Wednesday,February,6,2019
Ravenna Police Department,Ravenna,KY,Local Police Department,37.685047,-83.95386,2,2,Friday,August,10,2018
Montrose Township Police Department,Montrose,MI,Local Police Department,43.16652,-83.893425,8,9,Wednesday,February,6,2019
Cave In Rock Police Department,Cave In Rock,IL,Local Police Department,37.46812,-88.166504,1,1,Monday,November,5,2018
Hawesville Police Department,Hawesville,KY,Local Police Department,37.903034,-86.752144,1,1,Friday,August,10,2018
Irvine Police Department,Irvine,KY,Local Police Department,37.700863,-83.97637,6,6,Friday,August,10,2018
Graymoor-Devondale Police Department,Louisville,KY,Local Police Department,38.271343,-85.6144,2,2,Friday,August,10,2018
Blackman Township Department Of Public Safety,Jackson,MI,Local Police Department,42.291523,-84.422905,28,29,Wednesday,February,6,2019
Springport Township Police Department,Springport,MI,Local Police Department,42.378635,-84.696976,2,5,Wednesday,February,6,2019
Parchment Police Department,Parchment,MI,Local Police Department,42.320248,-85.570816,3,3,Wednesday,February,6,2019
Cold Spring Police Department,Newport,KY,Local Police Department,39.01891,-84.42844,12,12,Friday,August,10,2018
Moundridge Police Department,Moundridge,KS,Local Police Department,38.201286,-97.51935,3,3,Tuesday,August,21,2018
Dayton Police Department,Dayton,KY,Local Police Department,39.112408,-84.473465,7,8,Friday,August,10,2018
Monroe City Police Department,Monroe,MI,Local Police Department,41.913685,-83.397835,40,45,Thursday,February,7,2019
Flatwoods Police Department,Flatwoods,KY,Local Police Department,38.515278,-82.72463,10,11,Friday,August,10,2018
Morganfield City Police Department,Morganfield,KY,Local Police Department,37.68346,-87.91651,7,12,Friday,August,10,2018
Union County Sheriffs Department,Morganfield,KY,Sheriff'S Office,37.683784,-87.91736,7,8,Friday,August,10,2018
Grandview Plaza Police Department,Junction City,KS,Local Police Department,39.031635,-96.79728,6,6,Tuesday,August,21,2018
Shawnee County Sheriffs Office,Topeka,KS,Sheriff'S Office,39.054928,-95.67034,112,144,Tuesday,August,21,2018
Maysville Police Department,Maysville,KY,Local Police Department,38.645607,-83.76114,23,30,Friday,August,10,2018
Shelbyville Police Department,Shelbyville,KY,Local Police Department,38.21094,-85.213036,23,24,Friday,August,10,2018
Clinton County Sheriffs Office,Albany,KY,Sheriff'S Office,36.69057,-85.13548,5,6,Monday,August,13,2018
Lincoln County Sheriffs Office,Stanford,KY,Sheriff'S Office,37.52998,-84.6599,9,11,Friday,August,10,2018
Chocolay Township Police Department,Marquette,MI,Local Police Department,46.491005,-87.35483,4,5,Thursday,February,7,2019
Williamsburg Police Department,Williamsburg,KY,Local Police Department,36.741543,-84.160965,12,12,Monday,August,13,2018
Vine Grove Police Department,Vine Grove,KY,Local Police Department,37.809795,-85.98454,6,6,Monday,August,13,2018
Glencoe Police Department,Glencoe,KY,Local Police Department,38.71635,-84.82286,1,1,Monday,August,13,2018
Rockville City Police Department,Rockville,MD,Local Police Department,39.08179,-77.15164,57,95,Wednesday,August,8,2018
Fairfield Police Department,Fairfield,ME,Local Police Department,44.585712,-69.59504,12,13,Thursday,March,7,2019
Dexter Police Department,Dexter,ME,Local Police Department,45.024536,-69.29003,6,7,Thursday,March,7,2019
Sturgis City Police Department,Sturgis,KY,Local Police Department,37.546513,-87.98484,4,4,Monday,August,13,2018
White Lake Township Police Department,White Lake,MI,Local Police Department,42.649776,-83.51166,27,38,Thursday,February,7,2019
Houlton Police Department,Houlton,ME,Local Police Department,46.124355,-67.829124,14,19,Thursday,March,7,2019
Croswell Police Department,Croswell,MI,Local Police Department,43.2758,-82.62091,6,6,Monday,February,11,2019
Kennebec County Sheriffs Department,Augusta,ME,Sheriff'S Office,44.313396,-69.77782,22,113,Thursday,March,7,2019
Hampden Police Department,Hampden,ME,Local Police Department,44.74607,-68.84753,11,12,Thursday,March,7,2019
Smiths Grove Police Department,Smiths Grove,KY,Local Police Department,37.050507,-86.20839,1,1,Monday,August,13,2018
Gibson County Sheriffs Department / Gibson County Jail,Princeton,IN,Sheriff'S Office,38.35742,-87.56723,17,46,Tuesday,August,28,2018
Edmore Police Department,Edmore,MI,Local Police Department,43.40674,-85.03403,0,0,Thursday,February,7,2019
Hustonville Police Department,Hustonville,KY,Local Police Department,37.471626,-84.81657,1,1,Monday,August,13,2018
Clay City Police Department,Clay City,KY,Local Police Department,37.861355,-83.92285,2,2,Monday,August,13,2018
Pleasant Ridge Police Department,Pleasant Ridge,MI,Local Police Department,42.470833,-83.14238,6,6,Thursday,February,7,2019
Bloomfield Township Police Department,Bloomfield Hills,MI,Local Police Department,42.57803,-83.28158,75,98,Thursday,February,7,2019
Southampton Police Department,Southampton,MA,Local Police Department,42.228844,-72.72887,7,7,Friday,September,7,2018
Wright County Sheriffs Office / Wright County Jail,Clarion,IA,Sheriff'S Office,42.726448,-93.73494,8,26,Thursday,August,23,2018
Lassen County Sheriffs Department,Susanville,CA,Sheriff'S Office,40.425533,-120.64888,31,97,Tuesday,July,17,2018
San Mateo County Sheriffs Office,Redwood City,CA,Sheriff'S Office,37.48812,-122.23073,334,598,Tuesday,July,17,2018
Monterey County Sheriffs Office,Salinas,CA,Sheriff'S Office,36.7011,-121.63073,315,430,Tuesday,July,17,2018
Acushnet Police Department,Acushnet,MA,Local Police Department,41.6829,-70.90861,17,19,Friday,September,7,2018
Bedford Police Department,Bedford,MA,Local Police Department,42.492752,-71.28283,28,37,Friday,September,7,2018
University Of Connecticut-Storrs Police Headquarters,Storrs,CT,Special Jurisdiction,41.809727,-72.260506,48,61,Thursday,May,10,2018
Tallahassee Police Department,Tallahassee,FL,Local Police Department,30.458303,-84.27904,364,499,Wednesday,May,30,2018
Causeway Police Department,Saint Gabriel,LA,Local Police Department,30.259317,-91.07886,10,16,Thursday,February,14,2019
University Of Iowa Department Of Public Safety,Iowa City,IA,Special Jurisdiction,41.65886,-91.53588,33,58,Wednesday,August,29,2018
Adel Police Department,Adel,IA,Local Police Department,41.61699,-94.02027,8,9,Wednesday,August,29,2018
Anita Police Department,Anita,IA,Local Police Department,41.444702,-94.76523,1,1,Wednesday,August,29,2018
Tucson Airport Authority Police Department,Tucson,AZ,Special Jurisdiction,32.12042,-110.93761,22,46,Thursday,July,12,2018
Sarasota Manatee Airport Authority Police Department,Sarasota,FL,Special Jurisdiction,27.387123,-82.5518,12,13,Wednesday,May,30,2018
Smyrna Marshal'S Office,Smyrna,GA,Constable/Marshal,33.883957,-84.516846,1,1,Friday,June,1,2018
Dekalb Technical College Police,Clarkston,GA,Special Jurisdiction,33.78994,-84.234406,4,4,Friday,June,1,2018
Dekalb County Schools Dept. Of Public Safety,Stone Mountain,GA,Special Jurisdiction,33.798515,-84.197754,83,218,Friday,June,1,2018
Santa Barbara County Main Jail,Santa Barbara,CA,Local Police Department,34.445026,-119.777115,-999,-999,Monday,July,16,2018
Martin Police Department,Martin,LA,Local Police Department,32.094604,-93.22185,1,1,Friday,February,15,2019
Naugatuck Valley Community College - Public Safety Department,Waterbury,CT,Special Jurisdiction,41.549797,-73.07299,5,10,Thursday,May,10,2018
Black River Technical College Police,Pocahontas,AR,Special Jurisdiction,36.239777,-90.9511,7,8,Wednesday,May,16,2018
Volusia County Sheriff'S Office - Beach Patrol,Daytona Beach,FL,Special Jurisdiction,29.218758,-81.00355,60,64,Wednesday,May,30,2018
University Of Colorado Health Sciences- Fitzsimons Campus Police,Aurora,CO,Special Jurisdiction,39.746155,-104.842545,27,62,Wednesday,May,23,2018
Louisiana State University Police Department - Shreveport,Shreveport,LA,Special Jurisdiction,32.426826,-93.70624,10,11,Tuesday,February,12,2019
Sycuan Tribal Department Of Public Safety,El Cajon,CA,Local Police Department,32.788563,-116.82822,12,20,Tuesday,May,29,2018
Hopland Tribal Police Department,Hopland,CA,Local Police Department,38.980145,-123.05928,6,8,Wednesday,May,30,2018
California State University-Channel Islands Police Department,Camarillo,CA,Special Jurisdiction,34.16311,-119.043,14,20,Wednesday,May,30,2018
Granger Police Department,Granger,IA,Local Police Department,41.76025,-93.8206,2,2,Tuesday,May,29,2018
Anthon Police Department,Anthon,IA,Local Police Department,42.38851,-95.865005,1,5,Wednesday,August,29,2018
Habersham County Board Of Education Police,Mount Airy,GA,Special Jurisdiction,34.557415,-83.495895,2,3,Monday,August,13,2018
West Central Georgia Regional Hospital Police,Columbus,GA,Special Jurisdiction,32.49018,-84.86856,3,7,Tuesday,August,14,2018
New Harmony Town Marshal,New Harmony,IN,Constable/Marshal,38.129948,-87.93397,1,1,Thursday,August,23,2018
East Dubuque Police Department,East Dubuque,IL,Local Police Department,42.492886,-90.643616,7,7,Tuesday,November,6,2018
Bourbonnais Police Department,Bourbonnais,IL,Local Police Department,41.15932,-87.888214,22,29,Tuesday,November,6,2018
Wallace County Sheriffs Department / Wallace County Jail,Sharon Springs,KS,Sheriff'S Office,38.897938,-101.75236,2,6,Monday,August,20,2018
Maine State Police Troop D,Thomaston,ME,Primary State Agency,44.077225,-69.19565,-999,-999,Thursday,March,7,2019
Cherryvale Police Department,Cherryvale,KS,Local Police Department,37.26852,-95.552734,5,5,Monday,August,20,2018
Delaware River And Bay Authority Police Department Troop 1,New Castle,DE,Special Jurisdiction,39.695953,-75.54927,50,67,Monday,August,6,2018
Northern Michigan University Public Safety And Police Services,Marquette,MI,Special Jurisdiction,46.56674,-87.40695,22,27,Thursday,February,7,2019
Morehead State University Police Department,Morehead,KY,Special Jurisdiction,38.18868,-83.42987,16,-999,Friday,August,10,2018
Delaware State Police Troop 3 - Dover,Dover,DE,Primary State Agency,39.089924,-75.55794,-999,-999,Monday,August,6,2018
Kansas City Kansas Community College Campus Police,Kansas City,KS,Special Jurisdiction,39.12219,-94.74853,9,10,Tuesday,August,21,2018
Black Hawk College Department Of Public Safety - Quad Cities Campus,Moline,IL,Special Jurisdiction,41.477093,-90.4512,9,10,Thursday,November,15,2018
Coppin State University Public Safety Department,Baltimore,MD,Special Jurisdiction,39.31096,-76.65873,20,31,Wednesday,August,8,2018
Bowie State University Campus Police,Bowie,MD,Special Jurisdiction,39.02097,-76.758575,14,29,Wednesday,August,8,2018
Aledo Police Department,Aledo,IL,Local Police Department,41.20223,-90.748886,7,8,Tuesday,November,13,2018
South Suburban College Police Department,South Holland,IL,Special Jurisdiction,41.606434,-87.618866,10,14,Wednesday,October,31,2018
Stickney Police Department,Stickney,IL,Local Police Department,41.821144,-87.787,16,17,Wednesday,October,31,2018
Tower Lakes Police Department,Tower Lakes,IL,Local Police Department,42.23319,-88.1481,0,0,Tuesday,November,6,2018
Port Barrington Police Department,Port Barrington,IL,Local Police Department,42.24171,-88.20472,1,1,Monday,November,12,2018
Staunton Police Department,Staunton,IL,Local Police Department,39.011604,-89.78937,7,10,Wednesday,November,7,2018
Glenwood Police Department,Glenwood,IL,Local Police Department,41.545013,-87.61354,20,22,Wednesday,October,31,2018
Centralia Police Department,Centralia,IL,Local Police Department,38.525562,-89.13376,27,36,Monday,November,12,2018
Gurnee Police Department,Gurnee,IL,Local Police Department,42.361214,-87.915405,63,93,Wednesday,November,7,2018
Polo Police Department,Polo,IL,Local Police Department,41.985893,-89.57723,3,3,Tuesday,November,13,2018
Richmond County Sheriffs Office / Richmond County Jail,Augusta,GA,Sheriff'S Office,33.46606,-81.960045,449,712,Wednesday,August,15,2018
Habersham County Sheriffs Office / Habersham County Jail,Clarkesville,GA,Sheriff'S Office,34.611156,-83.53364,32,61,Monday,August,13,2018
Muscogee County Sheriffs Office,Columbus,GA,Sheriff'S Office,32.463486,-84.99154,228,357,Tuesday,August,14,2018
Jones County Sheriffs Department / Jones County Jail,Gray,GA,Sheriff'S Office,33.00544,-83.53211,43,45,Tuesday,August,14,2018
Mcintosh County Law Enforcement Center,Darien,GA,Sheriff'S Office,31.412579,-81.45772,42,69,Tuesday,August,14,2018
Carroll County Sheriffs Office,Carrollton,GA,Sheriff'S Office,33.568665,-85.04638,99,184,Tuesday,August,7,2018
Calhoun County Sheriffs Office,Morgan,GA,Sheriff'S Office,31.538315,-84.59929,6,15,Tuesday,August,7,2018
Habersham County Marshals Office,Clarkesville,GA,Constable/Marshal,34.617092,-83.52523,1,1,Monday,August,13,2018
Pulaski County Sheriffs Office,Hawkinsville,GA,Sheriff'S Office,32.28299,-83.469025,12,24,Wednesday,August,15,2018
Glascock County Sheriffs Office,Gibson,GA,Sheriff'S Office,33.233112,-82.5946,2,3,Friday,August,10,2018
Clarke County Sheriffs Office,Athens,GA,Sheriff'S Office,33.9601,-83.37461,128,152,Wednesday,August,8,2018
Cook County Sheriffs Department / Cook County Jail,Adel,GA,Sheriff'S Office,31.125076,-83.438,22,27,Thursday,August,9,2018
Early County Department Of Public Safety,Blakely,GA,Sheriff'S Office,31.365044,-84.92667,26,44,Thursday,August,9,2018
Butts County Sheriffs Office / Butts County Jail,Jackson,GA,Sheriff'S Office,33.294456,-83.94642,39,81,Tuesday,August,7,2018
Wilcox County Sheriffs Department / Wilcox County Jail,Abbeville,GA,Sheriff'S Office,31.992662,-83.30584,8,14,Monday,August,20,2018
Dekalb County Sheriffs Office / Dekalb County Jail,Decatur,GA,Sheriff'S Office,33.775745,-84.24453,325,763,Thursday,August,9,2018
Laurens County Sheriffs Department / Laurens County Jail,Dublin,GA,Sheriff'S Office,32.496693,-82.9224,61,111,Tuesday,August,14,2018
Camden County Sheriffs Department / Camden County Jail,Woodbine,GA,Sheriff'S Office,30.967394,-81.72117,47,65,Tuesday,August,7,2018
Banks County Sheriffs Office / Banks County Jail,Homer,GA,Sheriff'S Office,34.313946,-83.471504,31,54,Tuesday,August,7,2018
Bibb County Sheriffs Office,Macon,GA,Sheriff'S Office,32.829185,-83.637314,290,330,Tuesday,August,7,2018
Pickens County Sheriffs Office / Pickens County Jail,Jasper,GA,Sheriff'S Office,34.454124,-84.44793,47,87,Tuesday,August,14,2018
Glynn County Sheriffs Department / Glynn County Detention Center,Brunswick,GA,Sheriff'S Office,31.15398,-81.49634,32,149,Friday,August,10,2018
Tift County Sheriffs Department / Tift County Jail,Tifton,GA,Sheriff'S Office,31.454557,-83.51773,59,112,Thursday,August,16,2018
Upson County Sheriffs Office / Upson County Jail,Thomaston,GA,Sheriff'S Office,32.93789,-84.340195,33,62,Thursday,August,16,2018
Mcduffie County Sheriff / Mcduffie County Jail,Thomson,GA,Sheriff'S Office,33.456635,-82.482506,16,46,Tuesday,August,14,2018
Taylor County Sheriffs Office / Taylor County Jail,Butler,GA,Sheriff'S Office,32.5576,-84.23678,10,19,Wednesday,August,15,2018
Haralson County Sheriffs Office / Haralson County Jail,Buchanan,GA,Sheriff'S Office,33.8018,-85.18044,38,70,Monday,August,13,2018
Hall County Sheriffs Office,Gainesville,GA,Sheriff'S Office,34.295036,-83.82507,257,479,Monday,August,13,2018
Towns County Sheriffs Office,Young Harris,GA,Sheriff'S Office,34.984116,-83.82885,18,32,Thursday,August,16,2018
Pocahontas County Sheriffs Office / Pocahontas County Jail,Pocahontas,IA,Sheriff'S Office,42.737194,-94.66887,7,13,Wednesday,August,22,2018
Davis County Sheriffs Department / Davis County Jail,Bloomfield,IA,Sheriff'S Office,40.75087,-92.41596,5,13,Wednesday,August,22,2018
Iowa State Patrol District 2 - Osceda,Osceola,IA,Local Police Department,41.070267,-93.784584,-999,-999,Tuesday,August,28,2018
Palmetto Police Department,Palmetto,FL,Local Police Department,27.520962,-82.57783,37,49,Wednesday,August,1,2018
Auburndale Police Department,Auburndale,FL,Local Police Department,28.064041,-81.78921,35,44,Thursday,August,2,2018
Lake Hamilton Police Department,Lake Hamilton,FL,Local Police Department,28.042648,-81.62158,6,7,Thursday,August,2,2018
White Springs Police Department,White Springs,FL,Local Police Department,30.336027,-82.759254,3,3,Tuesday,July,31,2018
Lake Placid Police Department,Lake Placid,FL,Local Police Department,27.297415,-81.364265,8,10,Tuesday,July,31,2018
Winter Haven Police Department,Winter Haven,FL,Local Police Department,28.035065,-81.72732,79,103,Thursday,August,2,2018
Boca Raton Police Department,Boca Raton,FL,Local Police Department,26.351774,-80.088974,188,277,Thursday,August,2,2018
Monticello Police Department,Monticello,FL,Local Police Department,30.544622,-83.87125,9,13,Wednesday,August,1,2018
Palm Beach Gardens Police Department,Palm Beach Gardens,FL,Local Police Department,26.833443,-80.10447,114,147,Thursday,August,2,2018
Bradenton Beach Police Department,Bradenton Beach,FL,Local Police Department,27.468094,-82.698074,10,10,Wednesday,August,1,2018
Bradenton Police Department,Bradenton,FL,Local Police Department,27.498562,-82.572655,122,158,Wednesday,August,1,2018
Largo Police Department,Largo,FL,Local Police Department,27.92024,-82.77647,140,188,Thursday,August,2,2018
Cottondale Police Department,Cottondale,FL,Local Police Department,30.7957,-85.37618,3,3,Wednesday,August,1,2018
Coleman Police Department,Coleman,FL,Local Police Department,28.800976,-82.06937,2,2,Friday,August,3,2018
Indian River Shores Police Department,Vero Beach,FL,Local Police Department,27.691772,-80.372955,20,22,Wednesday,August,1,2018
De Funiak Springs Police Department,De Funiak Springs,FL,Local Police Department,30.721752,-86.11468,19,25,Monday,August,6,2018
Apalachicola Police Department,Apalachicola,FL,Local Police Department,29.723244,-84.98975,7,8,Tuesday,July,31,2018
Iowa State Patrol District 16,Des Moines,IA,Local Police Department,41.591217,-93.60105,-999,-999,Tuesday,August,28,2018
Haines City Police Department,Haines City,FL,Local Police Department,28.114502,-81.64061,44,67,Thursday,August,2,2018
Clayton County Police Department - Headquarters,Jonesboro,GA,Local Police Department,33.538616,-84.347,336,398,Wednesday,August,8,2018
Kingston Police Department,Kingston,GA,Local Police Department,34.235573,-84.947914,3,3,Tuesday,August,7,2018
West Feliciana Parish Sheriffs Office,Saint Francisville,LA,Sheriff'S Office,30.775019,-91.38631,50,75,Wednesday,February,13,2019
La Salle Parish Sheriffs Office,Jena,LA,Sheriff'S Office,31.685541,-92.13239,42,42,Thursday,February,14,2019
Madison Parish Sheriffs Department,Tallulah,LA,Sheriff'S Office,32.408264,-91.18739,123,123,Wednesday,February,13,2019
Orleans Parish Civil Sheriffs Office,New Orleans,LA,Sheriff'S Office,29.951357,-90.07619,50,98,Thursday,February,14,2019
Union Parish Sheriff Department,Farmerville,LA,Sheriff'S Office,32.77367,-92.404915,30,48,Wednesday,February,13,2019
Calcasieu Parish Sheriffs Department,Lake Charles,LA,Sheriff'S Office,30.227093,-93.14124,592,800,Tuesday,February,12,2019
Iberia Parish Sheriffs Department,New Iberia,LA,Sheriff'S Office,30.004488,-91.821045,242,314,Thursday,February,14,2019
Avoyelles Parish Sheriffs Department / Avoyelles Parish Prison,Marksville,LA,Sheriff'S Office,31.115368,-92.06665,159,159,Tuesday,February,12,2019
Evangeline Parish Sheriffs Department,Ville Platte,LA,Sheriff'S Office,30.688435,-92.27937,20,53,Thursday,February,14,2019
Saint John The Baptist Parish Sheriffs Office / Saint John The Baptist Parish Jail,Laplace,LA,Sheriff'S Office,30.072243,-90.49966,150,246,Friday,February,15,2019
East Baton Rouge Parish Sheriffs Department / East Baton Rouge Parish Jail,Baton Rouge,LA,Sheriff'S Office,30.446854,-91.18717,359,835,Thursday,February,14,2019
Vernon Parish Sheriffs Department / Vernon Parish Jail,Leesville,LA,Sheriff'S Office,31.142237,-93.26042,64,143,Wednesday,February,13,2019
Bienville Parish Sheriffs Office / Bienville Parish Jail,Arcadia,LA,Sheriff'S Office,32.547157,-92.92541,31,50,Tuesday,February,12,2019
Iowa State Patrol District 5 - Cherokee,Cherokee,IA,Local Police Department,42.775726,-95.558655,-999,-999,Tuesday,August,28,2018
Alpine County Sheriffs Department,Markleeville,CA,Sheriff'S Office,38.694183,-119.77923,12,15,Monday,July,16,2018
Hanover Police Department,Hanover,MA,Local Police Department,42.113945,-70.82394,29,32,Thursday,September,6,2018
Southwick Police Department,Southwick,MA,Local Police Department,42.05381,-72.76838,16,21,Thursday,September,6,2018
Holden Police Department,Holden,MA,Local Police Department,42.355114,-71.87415,23,26,Thursday,September,6,2018
Fitchburg Police Department,Fitchburg,MA,Local Police Department,42.583614,-71.7999,79,86,Thursday,September,6,2018
Blackstone Police Department,Blackstone,MA,Local Police Department,42.017437,-71.53348,16,19,Thursday,September,6,2018
Nahant Police Department,Nahant,MA,Local Police Department,42.42763,-70.92613,12,13,Thursday,September,6,2018
Middleton Police Department,Middleton,MA,Local Police Department,42.59877,-71.02063,13,14,Thursday,September,6,2018
Hamilton Police Department,Hamilton,MA,Local Police Department,42.61244,-70.87149,15,15,Thursday,September,6,2018
Boston Police Department - Headquarters,Boston,MA,Local Police Department,42.33429,-71.0904,2181,2863,Thursday,September,6,2018
Fall River Police Department,Fall River,MA,Local Police Department,41.69682,-71.14408,237,283,Thursday,September,6,2018
Hampden Police Station,Hampden,MA,Local Police Department,42.064472,-72.4139,10,15,Thursday,September,6,2018
Dracut Police Department,Dracut,MA,Local Police Department,42.67285,-71.29059,40,45,Thursday,September,6,2018
Orleans Police Department,Orleans,MA,Local Police Department,41.781326,-69.98763,22,28,Thursday,September,6,2018
Truro Police Department,Truro,MA,Local Police Department,42.022034,-70.074196,10,15,Thursday,September,6,2018
Carver Police Department,Carver,MA,Local Police Department,41.888485,-70.7682,16,20,Thursday,September,6,2018
Eastham Police Department,Eastham,MA,Local Police Department,41.831257,-69.97324,15,21,Thursday,September,6,2018
Manchester Police Department,Manchester By The Sea,MA,Local Police Department,42.57489,-70.77235,14,18,Thursday,September,6,2018
Montgomery Police Department,Montgomery,LA,Local Police Department,31.666164,-92.89021,0,0,Wednesday,February,13,2019
Church Point Police Department,Church Point,LA,Local Police Department,30.406729,-92.21777,18,18,Tuesday,February,12,2019
Addis Police Department,Addis,LA,Local Police Department,30.355726,-91.26022,8,9,Wednesday,February,13,2019
Moreauville Police Department,Moreauville,LA,Local Police Department,31.03497,-91.97793,2,3,Tuesday,February,12,2019
Golden Meadow Police Department,Golden Meadow,LA,Local Police Department,29.393604,-90.26981,3,4,Wednesday,February,13,2019
Maurice Police Department,Maurice,LA,Local Police Department,30.104849,-92.125885,5,5,Wednesday,February,13,2019
Broussard Police Department,Broussard,LA,Local Police Department,30.146595,-91.96039,23,29,Wednesday,February,13,2019
Gonzales Police Department,Gonzales,LA,Local Police Department,30.232328,-90.91288,34,34,Tuesday,February,12,2019
Vinton Police Department,Vinton,LA,Local Police Department,30.192297,-93.58108,12,14,Tuesday,February,12,2019
Gretna Police Department,Gretna,LA,Local Police Department,29.917822,-90.058624,93,123,Thursday,February,14,2019
Elton Police Department,Elton,LA,Local Police Department,30.481544,-92.69831,8,12,Thursday,February,14,2019
Olla Police Department,Olla,LA,Local Police Department,31.903313,-92.241196,4,4,Thursday,February,14,2019
Cankton Police Department,Sunset,LA,Local Police Department,30.344799,-92.10981,1,1,Friday,February,15,2019
Kinder Police Department,Kinder,LA,Local Police Department,30.48545,-92.84992,17,24,Tuesday,February,12,2019
Chatham Police Department,Chatham,LA,Local Police Department,32.306606,-92.452126,1,1,Thursday,February,14,2019
Walker Police Department,Walker,LA,Local Police Department,30.4896,-90.86787,17,21,Thursday,February,14,2019
Bonita Police Department,Bonita,LA,Local Police Department,32.921204,-91.67371,1,1,Thursday,February,14,2019
Mcnary Police Department,Mcnary,LA,Local Police Department,30.990625,-92.57942,1,1,Friday,February,15,2019
Thibodaux Police Department,Thibodaux,LA,Local Police Department,29.783974,-90.82037,52,73,Thursday,February,14,2019
Covington Police Department,Covington,LA,Local Police Department,30.47922,-90.0957,40,52,Wednesday,February,13,2019
New Roads Police Department,New Roads,LA,Local Police Department,30.692875,-91.4349,22,23,Thursday,February,14,2019
Jackson Police Department,Jackson,LA,Local Police Department,30.837177,-91.21625,5,5,Thursday,February,14,2019
Baker Police Department,Baker,LA,Local Police Department,30.589464,-91.16494,37,38,Thursday,February,14,2019
Franklinton Police Department,Franklinton,LA,Local Police Department,30.853346,-90.15697,16,22,Wednesday,February,13,2019
Morgan City Police Department,Morgan City,LA,Local Police Department,29.694569,-91.18797,56,62,Wednesday,February,13,2019
Morganza Police Department,Morganza,LA,Local Police Department,30.736988,-91.59378,0,0,Thursday,February,14,2019
Leesville Police Department,Leesville,LA,Local Police Department,31.143518,-93.26428,28,40,Wednesday,February,13,2019
Clinton Police Department,Clinton,LA,Local Police Department,30.864956,-91.01877,7,8,Thursday,February,14,2019
Angie Police Department,Angie,LA,Local Police Department,30.965536,-89.811356,1,1,Wednesday,February,13,2019
French Settlement Police Department,French Settlement,LA,Local Police Department,30.299328,-90.79855,1,1,Thursday,February,14,2019
Downey Police Department,Downey,CA,Local Police Department,33.94105,-118.12865,109,157,Friday,July,13,2018
Sutter Creek Police Department,Sutter Creek,CA,Local Police Department,38.392227,-120.80233,6,6,Friday,July,13,2018
Porterville Police Department,Porterville,CA,Local Police Department,36.07184,-119.017845,60,88,Friday,July,13,2018
Blythe Police Department,Blythe,CA,Local Police Department,33.612514,-114.597946,26,38,Friday,July,13,2018
La Palma Police Department,La Palma,CA,Local Police Department,33.8491,-118.03676,24,31,Friday,July,13,2018
Chula Vista Police Department,Chula Vista,CA,Local Police Department,32.639954,-117.08289,244,338,Friday,July,13,2018
Colton Police Department,Colton,CA,Local Police Department,34.071438,-117.32262,71,105,Friday,July,13,2018
Los Alamitos Police Department,Los Alamitos,CA,Local Police Department,33.803562,-118.07649,21,25,Friday,July,13,2018
Riverside Police Department - Orange Station,Riverside,CA,Local Police Department,33.978054,-117.374954,385,552,Friday,July,13,2018
Palm Springs Police Department,Palm Springs,CA,Local Police Department,33.82113,-116.51226,93,149,Friday,July,13,2018
Gilroy Police Department,Gilroy,CA,Local Police Department,37.004097,-121.5735,60,96,Friday,July,13,2018
Tehachapi Police Department,Tehachapi,CA,Local Police Department,35.131,-118.44639,13,16,Friday,July,13,2018
Clayton Police Department,Clayton,CA,Local Police Department,37.942413,-121.93726,11,13,Monday,July,16,2018
Atherton Police Department,Atherton,CA,Local Police Department,37.46348,-122.19774,20,26,Friday,July,13,2018
Greenfield Police Department,Greenfield,CA,Local Police Department,36.321293,-121.24423,14,18,Monday,July,16,2018
Marina Police Department,Marina,CA,Local Police Department,36.68277,-121.80292,30,37,Monday,July,16,2018
Napa Police Department,Napa,CA,Local Police Department,38.29676,-122.29021,72,118,Monday,July,16,2018
Pacific Grove Police Department,Pacific Grove,CA,Local Police Department,36.61917,-121.918945,20,27,Monday,July,16,2018
Redwood City Police Department,Redwood City,CA,Local Police Department,37.493156,-122.220825,96,135,Monday,July,16,2018
Milpitas Police Department,Milpitas,CA,Local Police Department,37.4491,-121.91022,86,110,Monday,July,16,2018
Santa Monica Police Department,Santa Monica,CA,Local Police Department,34.012257,-118.49081,205,337,Monday,July,16,2018
Tracy Police Department,Tracy,CA,Local Police Department,37.739033,-121.41892,90,140,Monday,July,16,2018
Gardena Police Department,Gardena,CA,Local Police Department,33.883297,-118.30748,91,115,Monday,July,16,2018
Parlier Police Department,Parlier,CA,Local Police Department,36.607807,-119.54632,15,20,Monday,July,16,2018
Inglewood Police Department,Inglewood,CA,Local Police Department,33.9631,-118.35482,187,247,Monday,July,16,2018
Bell Police Department,Bell,CA,Local Police Department,33.97923,-118.188446,28,46,Monday,July,16,2018
Merced Police Department - Central Station,Merced,CA,Local Police Department,37.307365,-120.48214,105,148,Monday,July,16,2018
Arvin Police Department,Arvin,CA,Local Police Department,35.210197,-118.832756,15,23,Friday,July,13,2018
Los Banos Police Department,Los Banos,CA,Local Police Department,37.06093,-120.85006,48,74,Monday,July,16,2018
Coalinga Police Department,Coalinga,CA,Local Police Department,36.13942,-120.36187,18,26,Monday,July,16,2018
Moulton Marshal Office,Moulton,IA,Constable/Marshal,40.684467,-92.67676,1,1,Wednesday,August,22,2018
Baxter Police Department,Baxter,IA,Local Police Department,41.826485,-93.151215,2,2,Wednesday,August,22,2018
Guthrie Center Police Department,Guthrie Center,IA,Local Police Department,41.67761,-94.5066,2,2,Wednesday,August,22,2018
Poweshiek County Sheriffs Office / Poweshiek County Jail,Montezuma,IA,Sheriff'S Office,41.573612,-92.5264,11,22,Wednesday,August,22,2018
Chickasaw Sheriffs Office / Chickasaw County Jail,New Hampton,IA,Sheriff'S Office,43.06074,-92.31587,8,12,Wednesday,August,22,2018
Hardin County Sheriff / Hardin County Jail,Eldora,IA,Sheriff'S Office,42.360058,-93.09751,10,31,Tuesday,June,5,2018
Mohave County Sheriffs Office,Kingman,AZ,Sheriff'S Office,35.189716,-114.064644,92,250,Wednesday,July,11,2018
Springerville Police Department,Springerville,AZ,Local Police Department,34.132397,-109.281296,8,12,Thursday,July,12,2018
Marana Police Department - Main Station,Marana,AZ,Local Police Department,32.44739,-111.211235,74,103,Wednesday,July,11,2018
San Luis Police Department,San Luis,AZ,Local Police Department,32.498695,-114.77532,30,32,Thursday,July,12,2018
Sierra Vista Police Department,Sierra Vista,AZ,Local Police Department,31.564074,-110.27328,60,88,Thursday,July,12,2018
United States Bureau Of Indian Affairs - Colorado River Indian Tribe,Parker,AZ,Local Police Department,34.14612,-114.30368,11,31,Wednesday,July,11,2018
Hualapai Tribal Police Department,Peach Springs,AZ,Local Police Department,35.537144,-113.42144,16,17,Wednesday,July,11,2018
Jackson County Sheriffs Office,Marianna,FL,Sheriff'S Office,30.78493,-85.26156,61,81,Wednesday,August,1,2018
Pensacola Junior College Police Department,Pensacola,FL,Special Jurisdiction,30.482218,-87.200554,12,16,Tuesday,July,31,2018
Gadsden County Sheriff Department,Quincy,FL,Sheriff'S Office,30.587261,-84.57121,48,115,Tuesday,July,31,2018
Highlands County Sheriffs Office,Sebring,FL,Sheriff'S Office,27.493572,-81.43594,130,335,Tuesday,July,31,2018
Liberty County Sheriffs Department / Liberty County Jail,Bristol,FL,Sheriff'S Office,30.432228,-84.979996,13,35,Wednesday,August,1,2018
Putnam County Sheriffs Department / Putnam County Jail,Palatka,FL,Sheriff'S Office,29.668362,-81.66184,114,242,Friday,August,3,2018
Broward County Sheriffs Office - Central Broward,Fort Lauderdale,FL,Sheriff'S Office,26.124662,-80.177414,1624,5688,Monday,July,30,2018
Jefferson County Sheriffs Department / Jefferson County Jail,Monticello,FL,Sheriff'S Office,30.502962,-83.88143,20,46,Wednesday,August,1,2018
Bent County Sheriffs Office,Las Animas,CO,Sheriff'S Office,38.079067,-103.21819,8,18,Wednesday,July,25,2018
Glendale Police Department,Glendale,CA,Local Police Department,34.147118,-118.249214,264,379,Monday,July,16,2018
Torrance Police Department,Torrance,CA,Local Police Department,33.83985,-118.34229,235,338,Monday,July,16,2018
Hayward Police Department,Hayward,CA,Local Police Department,37.65753,-122.09691,185,295,Monday,July,16,2018
Whittier Police Department,Whittier,CA,Local Police Department,33.974922,-118.03457,127,175,Monday,July,16,2018
Rohnert Park Department Of Public Safety - Police Division,Rohnert Park,CA,Local Police Department,38.349285,-122.70308,78,111,Monday,July,16,2018
Cotati Police Department,Cotati,CA,Local Police Department,38.32306,-122.7092,12,19,Monday,July,16,2018
La Verne Police Department,La Verne,CA,Local Police Department,34.10109,-117.771255,46,67,Monday,July,16,2018
Firebaugh Police Department,Firebaugh,CA,Local Police Department,36.859547,-120.45584,12,16,Monday,July,16,2018
Bell Gardens Police Department,Bell Gardens,CA,Local Police Department,33.967644,-118.14991,51,70,Monday,July,16,2018
Ak-Chin Tribal Police Department,Maricopa,AZ,Local Police Department,33.02808,-112.05854,12,34,Tuesday,May,29,2018
Fremont County Sheriff / Fremont County Jail,Sidney,IA,Sheriff'S Office,40.747715,-95.64505,7,18,Tuesday,June,5,2018
Clayton County Sheriff / Clayton County Jail,Saint Olaf,IA,Sheriff'S Office,42.89082,-91.35668,12,26,Wednesday,August,22,2018
Black Hawk County Sheriffs Office / Black Hawk County Jail,Waterloo,IA,Sheriff'S Office,42.497627,-92.3339,98,130,Wednesday,August,22,2018
Mitchell County Sheriff / Mitchell County Jail,Osage,IA,Sheriff'S Office,43.282715,-92.813255,6,15,Wednesday,August,22,2018
Ringgold County Sheriffs Office / Ringgold County Jail,Mount Ayr,IA,Sheriff'S Office,40.714302,-94.23822,7,36,Wednesday,August,22,2018
Jones County Sheriffs Department / Jones County Jail,Anamosa,IA,Sheriff'S Office,42.109173,-91.28988,10,24,Wednesday,August,22,2018
Monona County Sheriffs Office / Monona County Jail,Onawa,IA,Sheriff'S Office,42.027596,-96.09266,7,19,Wednesday,August,22,2018
University Of Colorado At Colorado Springs Department Of Public Safety,Colorado Springs,CO,Special Jurisdiction,38.892406,-104.803,14,21,Tuesday,July,24,2018
Auraria Campus Police Department,Denver,CO,Special Jurisdiction,39.74177,-105.009254,26,39,Tuesday,July,24,2018
Arapahoe County Sheriffs Department,Centennial,CO,Sheriff'S Office,39.579895,-104.83776,407,629,Tuesday,July,24,2018
Elbert County Sheriffs Office / Elbert County Jail,Kiowa,CO,Sheriff'S Office,39.342075,-104.46404,28,34,Wednesday,July,25,2018
Logan County Sheriffs Office / Logan County Justice Center,Sterling,CO,Sheriff'S Office,40.622093,-103.17868,24,51,Wednesday,July,25,2018
Jefferson County Sheriffs Office / Jefferson County Jail,Golden,CO,Sheriff'S Office,39.73034,-105.20193,537,770,Tuesday,July,24,2018
La Plata County Sheriffs Office,Durango,CO,Sheriff'S Office,37.24719,-107.878365,90,123,Tuesday,July,24,2018
Yuma County Sheriffs Office / Yuma County Jail,Wray,CO,Sheriff'S Office,40.078613,-102.22037,8,20,Wednesday,July,25,2018
Routt County Sheriffs Office / Routt County Jail,Steamboat Springs,CO,Sheriff'S Office,40.501972,-106.86085,22,45,Wednesday,July,25,2018
Oglethorpe County Law Enforcement Center,Crawford,GA,Sheriff'S Office,33.894783,-83.121445,19,49,Tuesday,August,14,2018
Peach County Law Enforcement Center,Fort Valley,GA,Sheriff'S Office,32.548374,-83.87712,52,59,Tuesday,August,14,2018
Sumter County Law Enforcement Center,Americus,GA,Sheriff'S Office,32.074028,-84.27733,84,98,Wednesday,August,15,2018
Georgia Southwestern State University Police Department,Americus,GA,Special Jurisdiction,32.055832,-84.21827,10,11,Wednesday,August,15,2018
Chatham County Public Schools Campus Police,Savannah,GA,Special Jurisdiction,32.076267,-81.09261,37,45,Tuesday,August,7,2018
Medical College Of Georgia Department Of Public Safety,Augusta,GA,Special Jurisdiction,33.476795,-81.9852,32,47,Wednesday,August,15,2018
Savannah Hilton Head International Airport Police Department,Savannah,GA,Special Jurisdiction,32.13563,-81.20953,17,27,Wednesday,August,8,2018
Dekalb County Marshals Office,Decatur,GA,Constable/Marshal,33.77407,-84.29721,22,27,Thursday,August,9,2018
Burke County Sheriffs Office,Waynesboro,GA,Sheriff'S Office,33.07516,-81.99589,29,61,Tuesday,August,7,2018
Cherokee County Marshals Offices,Canton,GA,Constable/Marshal,34.2101,-84.50527,7,15,Wednesday,August,8,2018
Barrow County Sheriffs Office,Winder,GA,Sheriff'S Office,33.99222,-83.72181,127,194,Tuesday,August,7,2018
Henry County Sheriffs Department / Henry County Jail,Mcdonough,GA,Sheriff'S Office,33.422646,-84.168945,127,239,Monday,August,13,2018
Polk County Sheriffs Office / Polk County Jail,Cedartown,GA,Sheriff'S Office,34.015453,-85.21742,27,77,Wednesday,August,15,2018
Grady County Sheriffs Department / Grady County Jail,Cairo,GA,Sheriff'S Office,30.895323,-84.2028,15,20,Monday,August,13,2018
Walton County Sheriffs Department / Walton County Jail,Monroe,GA,Sheriff'S Office,33.770817,-83.699356,123,153,Thursday,August,16,2018
Bartow County Sheriff / Bartow County Jail,Cartersville,GA,Sheriff'S Office,34.19144,-84.77786,172,217,Tuesday,August,7,2018
Wheeler County Sheriffs Office / Wheeler County Jail,Alamo,GA,Sheriff'S Office,32.148388,-82.78273,4,8,Monday,August,20,2018
Crisp County Sheriffs Department / Crisp County Jail,Cordele,GA,Sheriff'S Office,31.92476,-83.77833,50,68,Thursday,August,9,2018
Toombs County Sheriffs Department / Charles Durst Detention Center,Lyons,GA,Sheriff'S Office,32.202797,-82.33,22,67,Thursday,August,16,2018
Douglas County Sheriff / Douglas County Jail,Douglasville,GA,Sheriff'S Office,33.74815,-84.75325,223,335,Thursday,August,9,2018
Schley County Sheriffs Office / Schley County Jail,Ellaville,GA,Sheriff'S Office,32.23905,-84.31,4,10,Wednesday,August,15,2018
Webster County Sheriffs Office,Preston,GA,Sheriff'S Office,32.066628,-84.53705,3,4,Monday,August,20,2018
Boone County Sheriffs Office / Boone County Jail,Boone,IA,Sheriff'S Office,42.059566,-93.906265,11,29,Wednesday,August,22,2018
Ackley Police Department,Ackley,IA,Local Police Department,42.55437,-93.05174,4,4,Wednesday,August,22,2018
Mitchellville Police Department,Mitchellville,IA,Local Police Department,41.668392,-93.35733,3,3,Wednesday,August,22,2018
Wauchula Police Department,Wauchula,FL,Local Police Department,27.546522,-81.81301,15,19,Tuesday,July,31,2018
Stuart Police Department,Stuart,FL,Local Police Department,27.19305,-80.23976,45,62,Wednesday,August,1,2018
Center Hill City Police Department,Center Hill,FL,Local Police Department,28.648163,-81.99727,3,3,Friday,August,3,2018
Live Oak Police Department,Live Oak,FL,Local Police Department,30.2935,-82.981476,19,24,Friday,August,3,2018
South Miami Police Department,South Miami,FL,Local Police Department,25.703295,-80.29204,43,51,Wednesday,August,1,2018
Interlachen Police Department,Interlachen,FL,Local Police Department,29.626497,-81.89797,4,4,Friday,August,3,2018
Pinellas Park Police Department,Pinellas Park,FL,Local Police Department,27.841597,-82.71472,99,137,Thursday,August,2,2018
North Bay Village Police Department,North Bay Village,FL,Local Police Department,25.848894,-80.15792,25,32,Wednesday,August,1,2018
Mascotte Police Department,Mascotte,FL,Local Police Department,28.572727,-81.88039,12,15,Wednesday,August,1,2018
Jacksonville Beach Police Department,Jacksonville Beach,FL,Local Police Department,30.285809,-81.40399,61,83,Tuesday,July,31,2018
Coral Gables Police Department,Coral Gables,FL,Local Police Department,25.745937,-80.260216,184,258,Wednesday,August,1,2018
Colorado State Division Of Fish And Wildlife - Park Rangers,Littleton,CO,Special Jurisdiction,39.563423,-105.03548,113,253,Wednesday,July,25,2018
Colorado State University Police Department,Fort Collins,CO,Special Jurisdiction,40.57713,-105.0871,39,63,Tuesday,July,24,2018
Social Circle Department Of Public Safety,Social Circle,GA,Local Police Department,33.655334,-83.71775,19,42,Thursday,August,16,2018
Cartersville Police Department,Cartersville,GA,Local Police Department,34.16371,-84.79949,54,65,Tuesday,August,7,2018
Orleans Parish Criminal Sheriffs Office,New Orleans,LA,Sheriff'S Office,29.961094,-90.09319,505,715,Thursday,February,14,2019
Pointe Coupee Parish Sheriffs Office,New Roads,LA,Sheriff'S Office,30.694088,-91.43263,97,101,Thursday,February,14,2019
Grambling State University Police Department,Grambling,LA,Special Jurisdiction,32.521908,-92.71318,9,23,Thursday,February,14,2019
Southeastern Louisiana University Police,Hammond,LA,Special Jurisdiction,30.515728,-90.468834,25,34,Wednesday,February,13,2019
Lafourche Parish Sheriffs Department,Thibodaux,LA,Sheriff'S Office,29.797976,-90.818596,287,350,Thursday,February,14,2019
Cameron Parish Sheriffs Department / Cameron Parish Jail,Cameron,LA,Sheriff'S Office,29.79853,-93.324974,48,72,Wednesday,February,13,2019
Red River Parish Sheriffs Department / Red River Parish Jail,Coushatta,LA,Sheriff'S Office,32.014202,-93.34023,26,38,Friday,February,15,2019
De Soto Parish Sheriffs Department / De Soto Parish Detention Center,Mansfield,LA,Sheriff'S Office,32.03944,-93.70954,81,94,Wednesday,February,13,2019
Washington Parish Sheriffs Department / Washington Parish Jail,Franklinton,LA,Sheriff'S Office,30.843662,-90.15613,51,117,Wednesday,February,13,2019
Saint Martin Parish Sheriffs Department / Saint Martin Parish Correctional Center,Saint Martinville,LA,Sheriff'S Office,30.119978,-91.82955,45,206,Friday,February,15,2019
Saint Tammany Parish Sheriffs Office,Covington,LA,Sheriff'S Office,30.48028,-90.09621,409,700,Wednesday,February,13,2019
Ida County Sheriff'S Office,Ida Grove,LA,Local Police Department,33.00438,-93.89398,1,1,Tuesday,February,12,2019
Madera County Sheriffs Department,Madera,CA,Sheriff'S Office,36.95341,-120.03717,78,115,Monday,July,16,2018
Clarksburg Police Department,Clarksburg,MA,Local Police Department,42.71206,-73.084465,1,1,Thursday,September,6,2018
Dudley Police Department,Dudley,MA,Local Police Department,42.04546,-71.89542,11,15,Thursday,September,6,2018
Wilbraham Police Department,Wilbraham,MA,Local Police Department,42.15065,-72.42601,28,29,Thursday,September,6,2018
Chicopee Police Department,Chicopee,MA,Local Police Department,42.156116,-72.584694,133,137,Thursday,September,6,2018
Northborough Police Department,Northborough,MA,Local Police Department,42.32577,-71.626945,20,27,Thursday,September,6,2018
Millbury Police Department,Millbury,MA,Local Police Department,42.18905,-71.762054,20,25,Thursday,September,6,2018
Swampscott Police Department,Swampscott,MA,Local Police Department,42.469894,-70.920654,33,34,Thursday,September,6,2018
Douglas Police Department,Douglas,MA,Local Police Department,42.06854,-71.71143,15,20,Thursday,September,6,2018
Salem Police Department,Salem,MA,Local Police Department,42.515766,-70.89662,83,89,Monday,September,10,2018
Lynn Police Department,Lynn,MA,Local Police Department,42.465626,-70.9489,178,197,Thursday,September,6,2018
Wellfleet Police Department,Wellfleet,MA,Local Police Department,41.94293,-70.02473,13,18,Thursday,September,6,2018
Everett Police Department,Everett,MA,Local Police Department,42.4125,-71.04472,100,108,Thursday,September,6,2018
North Andover Police Department,North Andover,MA,Local Police Department,42.692005,-71.11825,40,53,Thursday,September,6,2018
Boxford Police Department,Boxford,MA,Local Police Department,42.692966,-71.01377,13,13,Thursday,September,6,2018
Lenox Police Department,Lenox,MA,Local Police Department,42.356483,-73.28471,10,11,Thursday,September,6,2018
Lynnfield Police Department,Lynnfield,MA,Local Police Department,42.538372,-71.0472,18,23,Thursday,September,6,2018
Belchertown Police Department,Belchertown,MA,Local Police Department,42.271164,-72.41499,19,24,Thursday,September,6,2018
Falmouth Police Department,Falmouth,MA,Local Police Department,41.554295,-70.60335,63,70,Thursday,September,6,2018
Gill Police Department,Gill,MA,Local Police Department,42.628563,-72.51848,2,2,Thursday,September,6,2018
Goshen Police Department,Williamsburg,MA,Local Police Department,42.44302,-72.7895,2,2,Thursday,September,6,2018
Monterey Police Department,Monterey,MA,Local Police Department,42.179695,-73.21377,1,1,Thursday,September,6,2018
Wayland Police Department,Wayland,MA,Local Police Department,42.3635,-71.35939,22,23,Thursday,September,6,2018
Rockport Police Department,Rockport,MA,Local Police Department,42.64524,-70.6291,16,17,Thursday,September,6,2018
Seekonk Police Department,Seekonk,MA,Local Police Department,41.829926,-71.326546,34,36,Thursday,September,6,2018
Pelham Police Department,Pelham,MA,Local Police Department,42.378277,-72.468994,2,2,Thursday,September,6,2018
Lanesborough Police Department,Lanesborough,MA,Local Police Department,42.51932,-73.227554,7,7,Thursday,September,6,2018
Sunderland Police Department,Sunderland,MA,Local Police Department,42.452812,-72.58501,5,5,Thursday,September,6,2018
Ashfield Police Department,Ashfield,MA,Local Police Department,42.526066,-72.7919,0,0,Thursday,September,6,2018
East Brookfield Police Department,East Brookfield,MA,Local Police Department,42.22511,-72.052315,4,4,Thursday,September,6,2018
Wellesley Police Station,Wellesley,MA,Local Police Department,42.30052,-71.288185,38,49,Thursday,September,6,2018
Sharon Police Department,Sharon,MA,Local Police Department,42.114075,-71.18689,30,34,Thursday,September,6,2018
Norwood Police Department,Norwood,MA,Local Police Department,42.192596,-71.19493,61,72,Thursday,September,6,2018
North Reading Town Police Department,North Reading,MA,Local Police Department,42.57393,-71.07772,29,30,Thursday,September,6,2018
Reading Police Department,Reading,MA,Local Police Department,42.52508,-71.10116,40,52,Thursday,September,6,2018
Winthrop Police Department,Winthrop,MA,Local Police Department,42.376774,-70.98447,35,36,Thursday,September,6,2018
West Newbury Police Department,West Newbury,MA,Local Police Department,42.801094,-70.988144,7,8,Thursday,September,6,2018
Templeton Police Department,Templeton,MA,Local Police Department,42.55346,-72.06652,10,14,Thursday,September,6,2018
Lunenburg Police Department,Lunenburg,MA,Local Police Department,42.598106,-71.74108,13,13,Thursday,September,6,2018
Westford Police Department,Westford,MA,Local Police Department,42.581676,-71.43693,40,51,Thursday,September,6,2018
Westborough Police Department,Westborough,MA,Local Police Department,42.26823,-71.615074,30,36,Thursday,September,6,2018
Yarmouth Police Department,Yarmouth,MA,Local Police Department,41.66877,-70.24485,54,64,Thursday,September,6,2018
Ware Police Department,Ware,MA,Local Police Department,42.261223,-72.24175,18,18,Thursday,September,6,2018
Attleboro Police Department,Attleboro,MA,Local Police Department,41.943504,-71.28119,80,93,Friday,September,7,2018
Southbridge Police Department,Southbridge,MA,Local Police Department,42.0753,-72.02692,36,39,Friday,September,7,2018
West Bridgewater Police Department,West Bridgewater,MA,Local Police Department,42.018677,-71.01357,20,21,Friday,September,7,2018
Maynard Police Department,Maynard,MA,Local Police Department,42.430454,-71.461365,21,24,Friday,September,7,2018
Hull Police Department,Hull,MA,Local Police Department,42.26529,-70.84607,25,40,Friday,September,7,2018
Kingston Police Department,Kingston,MA,Local Police Department,41.993656,-70.736404,24,32,Friday,September,7,2018
Newburyport Police Department,Newburyport,MA,Local Police Department,42.811523,-70.87258,31,34,Friday,September,7,2018
Hopkinton Police Department,Hopkinton,MA,Local Police Department,42.22883,-71.52375,20,25,Friday,September,7,2018
Holliston Police Department,Holliston,MA,Local Police Department,42.207527,-71.42719,24,25,Friday,September,7,2018
San Diego Community College District Police Department,San Diego,CA,Special Jurisdiction,32.774075,-117.15998,38,73,Tuesday,July,17,2018
Sierra Community College Police Service,Rocklin,CA,Special Jurisdiction,38.788853,-121.215324,3,5,Tuesday,July,17,2018
Grays Harbor County Sheriffs Office,Montesano,WA,Sheriff'S Office,46.981716,-123.60129,39,78,Tuesday,September,11,2018
California State University - Dominguez Hills Police Department,Carson,CA,Special Jurisdiction,33.866528,-118.2572,17,24,Tuesday,July,17,2018
Mount San Jacinto Community College District Police Department - San Jacinto Campus,San Jacinto,CA,Special Jurisdiction,33.807827,-116.96784,2,10,Tuesday,July,17,2018
Grossmont - Cuyamaca Community College Police District - Grossmont Campus,El Cajon,CA,Special Jurisdiction,32.816437,-117.00364,11,14,Tuesday,July,17,2018
Yuba Community College District Police Department,Marysville,CA,Special Jurisdiction,39.12671,-121.537865,6,7,Tuesday,July,17,2018
San Francisco State University Police Department,San Francisco,CA,Special Jurisdiction,37.725967,-122.48145,24,44,Tuesday,July,17,2018
College Of The Sequoias Campus Police,Visalia,CA,Special Jurisdiction,36.32258,-119.31668,5,6,Tuesday,July,17,2018
San Joaquin Delta College Campus Police Department,Stockton,CA,Special Jurisdiction,37.99342,-121.31412,10,14,Tuesday,July,17,2018
California State University - Sacramento Police Department,Sacramento,CA,Special Jurisdiction,38.557503,-121.41969,21,30,Tuesday,July,17,2018
San Jose / Evergreen Community College District Police Department,San Jose,CA,Special Jurisdiction,37.300156,-121.76274,5,13,Tuesday,July,17,2018
University Of California - Irvine Police Department,Irvine,CA,Special Jurisdiction,33.646606,-117.834785,57,188,Tuesday,July,17,2018
Glendale Community College Police Department,Glendale,CA,Special Jurisdiction,34.166756,-118.22774,10,13,Tuesday,July,17,2018
Marin County Sheriffs Office - Kentfield Substation,Kentfield,CA,Special Jurisdiction,37.95412,-122.549065,7,8,Monday,July,16,2018
Sierra County Sheriffs Department / Sierra County Jail,Downieville,CA,Sheriff'S Office,39.55893,-120.83021,10,15,Wednesday,July,18,2018
California State University Police Department - Fullerton Campus,Fullerton,CA,Special Jurisdiction,33.883076,-117.889404,22,29,Wednesday,July,18,2018
Bart Police Department Headquarters,Oakland,CA,Special Jurisdiction,37.797638,-122.26607,192,268,Wednesday,July,18,2018
Amador County Sheriffs Department / Amador County Jail,Jackson,CA,Sheriff'S Office,38.35153,-120.76936,47,96,Wednesday,July,18,2018
Georgetown Police Department,Georgetown,MA,Local Police Department,42.72199,-70.99363,11,18,Friday,September,7,2018
Clinton Police Department,Clinton,MA,Local Police Department,42.41515,-71.682594,27,32,Friday,September,7,2018
Saugus Police Department,Saugus,MA,Local Police Department,42.465054,-71.00713,53,67,Friday,September,7,2018
Acton Police Department,Acton,MA,Local Police Department,42.480354,-71.44486,33,42,Friday,September,7,2018
Ayer Police Department,Ayer,MA,Local Police Department,42.56408,-71.592,15,20,Friday,September,7,2018
Rolfe Police Department,Rolfe,IA,Local Police Department,42.813538,-94.527664,2,3,Thursday,August,23,2018
Fort Madison Police Department,Fort Madison,IA,Local Police Department,40.633327,-91.31207,17,22,Friday,August,24,2018
Waukee City Police Department,Waukee,IA,Local Police Department,41.5989,-93.86551,12,13,Friday,August,24,2018
Greene Police Department,Greene,IA,Local Police Department,42.896847,-92.80211,1,1,Friday,August,24,2018
Pleasant Hill Police Department,Pleasant Hill,IA,Local Police Department,41.59732,-93.51474,13,14,Friday,August,24,2018
Mar-Mac Unified Law Enforcement District,Mc Gregor,IA,Local Police Department,43.045956,-91.18695,3,3,Friday,August,24,2018
Berlin Police Department,Kensington,CT,Local Police Department,41.62665,-72.77543,37,48,Wednesday,July,25,2018
Plainville Police Department,Plainville,CT,Local Police Department,41.67292,-72.86592,35,42,Thursday,July,26,2018
Regional Water Authority,New Haven,CT,Special Jurisdiction,41.289085,-72.925415,6,6,Thursday,July,26,2018
San Pablo Police Department,San Pablo,CA,Local Police Department,37.959843,-122.34118,57,79,Wednesday,July,18,2018
Calipatria Police Department,Calipatria,CA,Local Police Department,33.126015,-115.51522,5,5,Wednesday,July,18,2018
Seaside Police Department,Seaside,CA,Local Police Department,36.603577,-121.85354,48,59,Wednesday,July,18,2018
Mono County Sheriffs Department / Mono County Jail,Bridgeport,CA,Sheriff'S Office,38.25701,-119.22825,27,52,Wednesday,July,18,2018
Worcester County Sheriffs Office / Worcester County Jail And House Of Correction,West Boylston,MA,Sheriff'S Office,42.32312,-71.76879,23,666,Friday,September,7,2018
Hinton Police Department,Hinton,IA,Local Police Department,42.625813,-96.29024,2,2,Friday,August,24,2018
Orange City Police Department,Orange City,IA,Local Police Department,43.005054,-96.057785,7,7,Monday,August,27,2018
Calmar Police Department,Calmar,IA,Local Police Department,43.18267,-91.866066,2,2,Monday,August,27,2018
Tabor Police Department,Tabor,IA,Local Police Department,40.898148,-95.67111,1,1,Monday,August,27,2018
Buffalo Police Department,Buffalo,IA,Local Police Department,41.457287,-90.72209,3,3,Monday,August,27,2018
Milford City Police Department,Milford,IA,Local Police Department,43.32449,-95.15106,4,4,Monday,August,27,2018
Fort Dodge Police Department,Fort Dodge,IA,Local Police Department,42.50425,-94.18803,37,40,Monday,August,27,2018
Riceville Police Department,Riceville,IA,Local Police Department,43.36361,-92.555534,1,1,Monday,August,27,2018
Sigourney Police Department,Sigourney,IA,Local Police Department,41.334488,-92.20429,2,2,Monday,August,27,2018
Wapello Police Department,Wapello,IA,Local Police Department,41.182217,-91.18769,3,3,Monday,August,27,2018
Fairfield Police Department,Fairfield,IA,Local Police Department,41.00935,-91.9782,12,18,Monday,August,27,2018
Coralville Police Department,Coralville,IA,Local Police Department,41.677994,-91.58331,32,36,Monday,August,27,2018
Gilbertville Police Department,Gilbertville,IA,Local Police Department,42.416336,-92.21508,1,1,Monday,August,27,2018
Vinton Police Department,Vinton,IA,Local Police Department,42.168304,-92.02521,8,8,Monday,August,27,2018
Cedar Falls Police Department,Cedar Falls,IA,Local Police Department,42.536495,-92.44777,42,44,Monday,August,27,2018
Storm Lake Police Department,Storm Lake,IA,Local Police Department,42.647972,-95.196266,18,22,Monday,August,27,2018
Independence Police Department,Independence,IA,Local Police Department,42.470333,-91.88858,11,11,Monday,August,27,2018
Boone Police Department,Boone,IA,Local Police Department,42.061527,-93.8803,15,16,Monday,August,27,2018
Waukon Police Department,Waukon,IA,Local Police Department,43.270645,-91.47793,7,7,Monday,August,27,2018
Dunlap Police Department,Dunlap,IA,Local Police Department,41.85408,-95.59954,2,2,Monday,August,27,2018
Elkader Police Department,Elkader,IA,Local Police Department,42.85545,-91.40579,2,2,Tuesday,August,28,2018
Algona Police Department,Algona,IA,Local Police Department,43.0701,-94.23843,10,23,Tuesday,August,28,2018
Hiawatha Police Department,Hiawatha,IA,Local Police Department,42.038494,-91.675316,12,13,Tuesday,August,28,2018
Polk City Police Department,Polk City,IA,Local Police Department,41.771538,-93.714455,6,6,Wednesday,August,29,2018
Pella Police Department,Pella,IA,Local Police Department,41.405087,-92.916145,14,19,Wednesday,August,29,2018
Eagle Grove Police Department,Eagle Grove,IA,Local Police Department,42.663895,-93.89932,7,7,Wednesday,August,29,2018
Sheldon Police Department,Sheldon,IA,Local Police Department,43.180134,-95.85287,7,7,Wednesday,August,29,2018
Grinnell Police Department,Grinnell,IA,Local Police Department,41.743572,-92.72849,15,17,Wednesday,August,29,2018
Earlham City Sheriff,Earlham,IA,Local Police Department,41.49102,-94.12261,2,2,Wednesday,August,29,2018
Mount Vernon Police Department,Mount Vernon,IA,Local Police Department,41.92314,-91.41814,6,6,Wednesday,August,29,2018
Keota Police Department,Keota,IA,Local Police Department,41.36416,-91.94981,1,1,Wednesday,August,29,2018
Lenox City Police Department,Lenox,IA,Local Police Department,40.88028,-94.55948,3,3,Wednesday,August,29,2018
Coventry Police Department,Coventry,CT,Local Police Department,41.77703,-72.30943,14,19,Thursday,July,26,2018
Florida Dept Of Juvenile Justice,Tallahassee,FL,Special Jurisdiction,30.419552,-84.23399,12,12,Wednesday,May,30,2018
Broward Community College,Fort Lauderdale,FL,Special Jurisdiction,26.119429,-80.140724,50,59,Wednesday,May,30,2018
Frisco Police Department,Frisco,CO,Local Police Department,39.57567,-106.10228,13,16,Wednesday,May,23,2018
Georgia Bureau Of Investigation,Decatur,GA,Special Jurisdiction,33.692883,-84.272514,278,770,Friday,June,1,2018
Savannah-Chatham Metropolitan Police Department,Savannah,GA,Local Police Department,32.07541,-81.08894,534,757,Wednesday,August,8,2018
Georgia Southern University Dept Public Safety,Statesboro,GA,Special Jurisdiction,32.42601,-81.7886,27,27,Tuesday,August,7,2018
Montpelier Police Department,Montpelier,LA,Local Police Department,30.681963,-90.65788,1,1,Friday,February,15,2019
Saint Francisville Police Department,Saint Francisville,LA,Local Police Department,30.779375,-91.376945,8,8,Wednesday,February,13,2019
Lutcher Police Department,Lutcher,LA,Local Police Department,30.046953,-90.699394,3,3,Friday,February,15,2019
Youngsville Police Department,Youngsville,LA,Local Police Department,30.095293,-91.99618,11,12,Thursday,February,14,2019
East Carroll Parish Sheriffs Department,Lake Providence,LA,Sheriff'S Office,32.803757,-91.17333,16,231,Thursday,February,14,2019
Irvine Police Department,Irvine,CA,Local Police Department,33.68607,-117.82629,197,286,Thursday,July,19,2018
Chico Police Department,Chico,CA,Local Police Department,39.73583,-121.81528,88,140,Thursday,July,19,2018
Ferndale Police Department,Ferndale,CA,Local Police Department,40.57677,-124.26119,3,3,Thursday,July,19,2018
Shafter Police Department,Shafter,CA,Local Police Department,35.50447,-119.277115,21,28,Thursday,July,19,2018
Lodi Police Department,Lodi,CA,Local Police Department,38.135765,-121.276215,76,123,Monday,July,23,2018
Atwater Police Department,Atwater,CA,Local Police Department,37.3597,-120.600395,33,43,Friday,July,13,2018
Plymouth County Sheriffs Department,Plymouth,MA,Sheriff'S Office,41.931675,-70.65364,172,738,Friday,September,7,2018
Nevada Police Department,Nevada,IA,Local Police Department,42.023087,-93.45136,9,10,Wednesday,August,29,2018
Toledo Police Department,Toledo,IA,Local Police Department,41.99602,-92.58075,5,5,Wednesday,August,29,2018
Monroe County Law Enforcement / Monroe County Jail,Albia,IA,Sheriff'S Office,41.02554,-92.810005,5,12,Wednesday,August,22,2018
Clarke County Sheriffs Department / Clarke County Jail,Osceola,IA,Sheriff'S Office,41.044678,-93.763245,6,18,Wednesday,August,29,2018
Palm Springs Police Department,Palm Springs,FL,Local Police Department,26.641476,-80.09527,39,51,Thursday,August,2,2018
New Hartford Public Safety Department,New Hartford,CT,Local Police Department,41.879307,-72.9797,4,4,Thursday,May,10,2018
Peoria Police Department,Peoria,AZ,Local Police Department,33.57511,-112.23861,189,286,Thursday,May,10,2018
Yavapai-Apache Nation Police,Camp Verde,AZ,Local Police Department,34.620605,-111.89333,17,17,Thursday,May,10,2018
Sebastian Police Department,Sebastian,FL,Local Police Department,27.817572,-80.474266,39,55,Wednesday,August,1,2018
Lynn Haven Police Department Station 2,Lynn Haven,FL,Local Police Department,30.245632,-85.64791,25,37,Wednesday,May,30,2018
Jennings Police Department,Jennings,FL,Local Police Department,30.603342,-83.09916,2,2,Wednesday,May,30,2018
Tarpon Springs Police Department,Tarpon Springs,FL,Local Police Department,28.142784,-82.74486,49,71,Wednesday,May,30,2018
Volusia County Sheriff'S Office,Deland,FL,Sheriff'S Office,29.029516,-81.30503,450,767,Wednesday,May,30,2018
Leon County Sheriff'S Office,Tallahassee,FL,Sheriff'S Office,30.439491,-84.33529,443,606,Wednesday,May,30,2018
Woodland Park Police Department,Woodland Park,CO,Local Police Department,39.014854,-105.06638,20,28,Wednesday,May,23,2018
Craig Police Department,Craig,CO,Local Police Department,40.505924,-107.55674,22,27,Wednesday,May,23,2018
Hayden Police Department,Hayden,CO,Local Police Department,40.495243,-107.25848,6,6,Friday,May,25,2018
Alamosa Police Department,Alamosa,CO,Local Police Department,37.46959,-105.86352,24,28,Wednesday,July,25,2018
Southern Ute Tribal Police Dept,Ignacio,CO,Local Police Department,37.13373,-107.63309,17,32,Wednesday,May,30,2018
Antonito Police Department,Antonito,CO,Local Police Department,37.074574,-106.00901,2,2,Wednesday,May,30,2018
Abbeville Police Department,Abbeville,GA,Local Police Department,31.990438,-83.30817,3,5,Friday,May,25,2018
Clayton Police Department,Clayton,GA,Local Police Department,34.882538,-83.39896,9,10,Friday,May,25,2018
Tyrone Police Department,Tyrone,GA,Local Police Department,33.4783,-84.59455,18,18,Friday,May,25,2018
Milner Police Department,Milner,GA,Local Police Department,33.11515,-84.19593,1,1,Friday,May,25,2018
Baldwin Police Department,Baldwin,GA,Local Police Department,34.48669,-83.55,9,13,Friday,May,25,2018
Watkinsville Police Department,Watkinsville,GA,Local Police Department,33.86754,-83.418594,6,6,Friday,May,25,2018
Perry Police Department,Perry,GA,Local Police Department,32.461834,-83.734344,38,43,Friday,May,25,2018
Jefferson Police Department,Jefferson,GA,Local Police Department,34.128582,-83.583,23,27,Friday,May,25,2018
Grantville Police Department,Grantville,GA,Local Police Department,33.233,-84.839264,9,10,Friday,May,25,2018
Pendergrass Police Department,Pendergrass,GA,Local Police Department,34.16249,-83.67856,4,4,Friday,May,25,2018
Snellville Police Department,Snellville,GA,Local Police Department,33.83322,-84.00994,49,59,Wednesday,May,30,2018
Locust Grove Police Department,Locust Grove,GA,Local Police Department,33.351074,-84.11524,19,21,Wednesday,May,30,2018
Tunnel Hill Police Department,Tunnel Hill,GA,Local Police Department,34.8477,-85.0392,3,3,Wednesday,May,30,2018
Lakeland Police Department,Lakeland,GA,Local Police Department,31.03711,-83.07435,7,9,Wednesday,May,30,2018
Boston Police Department,Boston,GA,Local Police Department,30.791426,-83.790306,4,4,Wednesday,May,30,2018
Forsyth Police Department,Forsyth,GA,Local Police Department,33.03263,-83.93714,19,25,Wednesday,May,30,2018
Maysville Police Department,Maysville,GA,Local Police Department,34.253265,-83.56047,4,4,Wednesday,May,30,2018
Davisboro Police Department,Davisboro,GA,Local Police Department,32.979023,-82.60839,1,1,Thursday,May,31,2018
Statesboro City Police Department,Statesboro,GA,Local Police Department,32.44564,-81.78743,60,73,Thursday,May,31,2018
Mccaysville Police Department,Mccaysville,GA,Local Police Department,34.986225,-84.371735,4,4,Thursday,May,31,2018
Mountain City Police Department,Mountain City,GA,Local Police Department,34.919277,-83.38212,2,2,Monday,August,20,2018
Sylvester Police Department,Sylvester,GA,Local Police Department,31.525845,-83.83801,14,18,Thursday,May,31,2018
Enigma Police Department,Enigma,GA,Local Police Department,31.4091,-83.329765,1,1,Thursday,May,31,2018
Quitman Police Department,Quitman,GA,Local Police Department,30.783142,-83.558075,15,21,Thursday,May,31,2018
Collins Police Department,Collins,GA,Local Police Department,32.180298,-82.11009,1,1,Thursday,May,31,2018
Bloomingdale Police Department,Bloomingdale,GA,Local Police Department,32.134132,-81.301865,11,14,Thursday,May,31,2018
Trion Police Department,Trion,GA,Local Police Department,34.543095,-85.31236,8,9,Thursday,May,31,2018
Blue Ridge Police Department,Blue Ridge,GA,Local Police Department,34.863914,-84.325,9,9,Thursday,May,31,2018
Cohutta Police Department,Cohutta,GA,Local Police Department,34.959858,-84.95219,1,1,Thursday,May,31,2018
Talbotton Police Department,Talbotton,GA,Local Police Department,32.677326,-84.53978,3,3,Thursday,May,31,2018
Molena Police Department,Molena,GA,Local Police Department,33.011597,-84.4996,1,1,Thursday,May,31,2018
Edison Police Department,Edison,GA,Local Police Department,31.557266,-84.73801,3,3,Thursday,May,31,2018
Pearl River Police Department,Pearl River,LA,Local Police Department,30.375818,-89.74678,10,14,Wednesday,February,13,2019
Russellville Police Department,Russellville,AR,Local Police Department,35.28522,-93.13483,50,58,Friday,May,11,2018
Swifton Police Department,Swifton,AR,Local Police Department,35.82522,-91.13277,1,1,Friday,May,11,2018
Mcrae Police Department,Mcrae,AR,Local Police Department,35.112717,-91.82126,2,2,Monday,May,14,2018
Plumerville Police Department,Plumerville,AR,Local Police Department,35.157913,-92.64189,2,2,Monday,May,14,2018
Jefferson County Sheriffs Office,Pine Bluff,AR,Sheriff'S Office,34.22969,-92.00297,55,158,Monday,May,14,2018
Mineral Springs Police Department,Mineral Springs,AR,Local Police Department,33.87552,-93.914406,3,3,Monday,May,14,2018
Perry County Sheriffs Office,Perryville,AR,Sheriff'S Office,35.005108,-92.803925,8,16,Wednesday,May,16,2018
Mansfield Police Department,Mansfield,AR,Local Police Department,35.060333,-94.250565,4,4,Wednesday,May,16,2018
Ola Police Department,Ola,AR,Local Police Department,35.032806,-93.22239,3,5,Wednesday,May,16,2018
Lawrence County Sheriffs Office,Walnut Ridge,AR,Sheriff'S Office,36.07005,-90.95864,13,13,Wednesday,May,16,2018
Maumelle Police Department,Maumelle,AR,Local Police Department,34.85721,-92.403206,26,36,Wednesday,May,16,2018
Baxter County Sheriffs Office,Mountain Home,AR,Sheriff'S Office,36.333435,-92.386826,32,49,Wednesday,May,16,2018
Pea Ridge Police Department,Pea Ridge,AR,Local Police Department,36.441242,-94.118286,9,9,Wednesday,May,16,2018
Mountain Home Police Department,Mountain Home,AR,Local Police Department,36.333458,-92.38595,26,35,Wednesday,May,16,2018
Searcy Police Department,Searcy,AR,Local Police Department,35.249,-91.740074,41,54,Wednesday,May,16,2018
Stephens Police Department,Stephens,AR,Local Police Department,33.41132,-93.06961,1,1,Wednesday,May,16,2018
Cleveland County Sheriffs Office,Rison,AR,Sheriff'S Office,33.95833,-92.18969,7,12,Thursday,May,17,2018
Bradley County Sheriffs Office,Warren,AR,Sheriff'S Office,33.614956,-92.06369,4,5,Thursday,May,17,2018
Port Saint Lucie Police Department - Headquarters,Port Saint Lucie,FL,Local Police Department,27.27565,-80.343,245,320,Tuesday,May,22,2018
Umatilla Police Department,Umatilla,FL,Local Police Department,28.929304,-81.66804,8,9,Tuesday,May,22,2018
Edgewater Police Department,Edgewater,FL,Local Police Department,28.9929,-80.90527,30,33,Wednesday,May,23,2018
Collier County Sheriff / Collier County Jail,Naples,FL,Sheriff'S Office,26.127062,-81.765884,628,1285,Wednesday,May,23,2018
Oakland Police Department,Winter Garden,FL,Local Police Department,28.554249,-81.6209,7,8,Wednesday,May,23,2018
Springfield Police Department,Springfield,CO,Local Police Department,37.40666,-102.616196,3,3,Wednesday,May,23,2018
Walsh Police Department,Walsh,CO,Local Police Department,37.387314,-102.278564,1,1,Wednesday,July,25,2018
Mancos Marshals Office,Mancos,CO,Constable/Marshal,37.345432,-108.289406,3,4,Wednesday,May,23,2018
Grand County Sheriffs Office / Grand County Jail,Hot Sulphur Springs,CO,Sheriff'S Office,40.07244,-106.10454,18,42,Wednesday,May,23,2018
De Beque Town Marshals Office,De Beque,CO,Constable/Marshal,39.333164,-108.21396,3,3,Wednesday,May,23,2018
Glenwood Springs Police Department,Glenwood Springs,CO,Local Police Department,39.547043,-107.32729,24,30,Wednesday,May,23,2018
El Paso County Sheriffs Office Metro Facility,Colorado Springs,CO,Sheriff'S Office,38.830746,-104.82466,454,636,Wednesday,May,23,2018
Lake County Sheriffs Office,Leadville,CO,Sheriff'S Office,39.24813,-106.29225,9,10,Friday,May,25,2018
Lincoln County Sheriffs Department / Lincoln County Jail,Lincolnton,GA,Sheriff'S Office,33.794167,-82.47574,12,26,Friday,May,25,2018
Bleckley County Sheriffs Office,Cochran,GA,Sheriff'S Office,32.38756,-83.35523,12,16,Wednesday,May,30,2018
Quitman County Sheriffs Office,Georgetown,GA,Sheriff'S Office,31.886152,-85.10925,7,8,Thursday,May,31,2018
Johnson County Sheriffs Department / Johnson County Jail,Wrightsville,GA,Sheriff'S Office,32.74108,-82.70601,8,20,Friday,June,1,2018
Clinch County Sheriffs Department,Homerville,GA,Sheriff'S Office,31.036804,-82.7488,10,14,Friday,June,1,2018
Cherokee County Sheriffs Department / Cherokee County Jail,Canton,GA,Sheriff'S Office,34.195133,-84.492424,340,403,Friday,June,1,2018
Dodge County Sheriffs Department / Dodge County Jail,Eastman,GA,Sheriff'S Office,32.181152,-83.15951,15,28,Friday,June,1,2018
Twiggs County Sheriffs Office,Jeffersonville,GA,Sheriff'S Office,32.687603,-83.34492,22,41,Wednesday,May,30,2018
Echols County Sheriffs Office,Statenville,GA,Sheriff'S Office,30.702978,-83.02779,8,9,Friday,June,1,2018
Hart County Sheriffs Office / Hart County Jail,Hartwell,GA,Sheriff'S Office,34.35524,-82.93326,23,40,Friday,June,1,2018
Meriwether County Sheriffs Office / Meriwether County Jail,Greenville,GA,Sheriff'S Office,33.044243,-84.71138,30,50,Friday,June,1,2018
Walker County Sheriffs Department / Walker County Jail,Lafayette,GA,Sheriff'S Office,34.704437,-85.28009,80,118,Friday,June,1,2018
Marysville Police Department,Marysville,CA,Local Police Department,39.14124,-121.587975,19,31,Tuesday,July,17,2018
Port Of Stockton Port Police Department,Stockton,CA,Special Jurisdiction,37.94597,-121.32241,14,21,Monday,July,23,2018
San Diego Unified School District Police Department,San Diego,CA,Special Jurisdiction,32.753677,-117.14815,45,64,Tuesday,May,29,2018
Port Of Los Angeles Police,San Pedro,CA,Special Jurisdiction,33.74078,-118.28187,133,233,Tuesday,May,29,2018
Orange County Sheriff-Coroner Department,Santa Ana,CA,Sheriff'S Office,33.748405,-117.88027,1794,3317,Wednesday,May,30,2018
Santa Ana Police Department,Santa Ana,CA,Local Police Department,33.750454,-117.88047,369,682,Monday,July,23,2018
Prescott Police Department,Prescott,AZ,Local Police Department,34.538948,-112.467766,72,92,Thursday,July,12,2018
Cave Creek Marshal Office,Cave Creek,AZ,Constable/Marshal,33.827457,-111.955734,2,2,Tuesday,July,10,2018
North Miami Beach Police Department,Miami,FL,Local Police Department,25.931425,-80.16177,111,155,Wednesday,August,1,2018
Florida City Police Department,Florida City,FL,Local Police Department,25.448298,-80.48261,31,41,Wednesday,August,1,2018
Aventura Police Department,Miami,FL,Local Police Department,25.952806,-80.13929,80,117,Wednesday,August,1,2018
Golden Beach Police Department,Miami,FL,Local Police Department,25.957344,-80.12135,20,21,Wednesday,August,1,2018
Titusville Police Department,Titusville,FL,Local Police Department,28.530516,-80.81492,88,133,Monday,July,30,2018
Melbourne Beach Police Department,Melbourne Beach,FL,Local Police Department,28.067915,-80.56372,8,9,Monday,July,30,2018
Hillsboro Beach Police Department,Hillsboro Beach,FL,Local Police Department,26.300884,-80.078896,15,18,Monday,July,30,2018
Cape Coral Police Department,Cape Coral,FL,Local Police Department,26.630375,-81.957146,220,321,Wednesday,August,1,2018
Atlantic Beach Police Department,Atlantic Beach,FL,Local Police Department,30.33269,-81.402756,26,37,Tuesday,July,31,2018
Apopka Police Department,Apopka,FL,Local Police Department,28.670443,-81.50915,85,94,Wednesday,August,1,2018
Chiefland Police Department,Chiefland,FL,Local Police Department,29.478907,-82.85905,12,14,Wednesday,August,1,2018
Lake City Police Department,Lake City,FL,Local Police Department,30.19101,-82.63908,39,52,Monday,July,30,2018
Clermont Police Department,Clermont,FL,Local Police Department,28.55496,-81.769646,53,70,Wednesday,August,1,2018
Atascadero Police Department,Atascadero,CA,Local Police Department,35.491055,-120.67251,31,42,Friday,July,13,2018
Greenfield Community College Office Of Safety And Security,Greenfield,MA,Special Jurisdiction,42.59961,-72.631004,2,7,Friday,September,7,2018
Springfield Technical Community College - Campus Police,Springfield,MA,Special Jurisdiction,42.10883,-72.57851,13,18,Friday,September,7,2018
Westfield State College - Department Of Public Safety,Westfield,MA,Special Jurisdiction,42.12925,-72.79347,16,21,Friday,September,7,2018
University Of Massachusetts Boston Police,Dorchester,MA,Special Jurisdiction,42.314266,-71.04002,26,30,Friday,September,7,2018
Worcester Airport Police And Fire,Worcester,MA,Special Jurisdiction,42.270046,-71.87139,7,7,Monday,September,10,2018
Salem State College Department Of Public Safety,Salem,MA,Special Jurisdiction,42.50077,-70.893906,25,28,Monday,September,10,2018
Provincetown Harbormasters Office,Provincetown,MA,Special Jurisdiction,42.049786,-70.18265,1,3,Monday,September,10,2018
Delhi Police Department,Delhi,IA,Local Police Department,42.42995,-91.331795,1,1,Tuesday,June,5,2018
Greene County Law Enforcement Center,Jefferson,IA,Sheriff'S Office,42.013664,-94.373825,7,15,Tuesday,June,5,2018
Mechanicsville Police Department,Mechanicsville,IA,Local Police Department,41.905025,-91.25521,1,1,Tuesday,June,5,2018
Gowrie City Police,Gowrie,IA,Local Police Department,42.280807,-94.291504,1,1,Thursday,August,30,2018
Essex City Police Department,Essex,IA,Local Police Department,40.83317,-95.3077,1,1,Thursday,August,30,2018
Stonington Police Department,Pawcatuck,CT,Local Police Department,41.368652,-71.86223,34,46,Thursday,July,26,2018
Cromwell Police Department,Cromwell,CT,Local Police Department,41.595867,-72.64666,25,33,Thursday,July,26,2018
Nogales Police Department,Nogales,AZ,Local Police Department,31.34611,-110.9319,60,78,Wednesday,July,11,2018
Lake Alfred Police Department,Lake Alfred,FL,Local Police Department,28.092985,-81.72851,10,15,Friday,August,3,2018
Madison Police Department,Madison,FL,Local Police Department,30.467958,-83.41359,14,15,Wednesday,August,1,2018
Starke Police Department,Starke,FL,Local Police Department,29.938154,-82.11881,19,23,Monday,July,30,2018
Leesburg Police Department,Leesburg,FL,Local Police Department,28.809643,-81.874794,70,97,Wednesday,August,1,2018
Hollywood Police Department,Hollywood,FL,Local Police Department,26.010214,-80.174774,316,482,Monday,July,30,2018
Coral Springs Police Department,Coral Springs,FL,Local Police Department,26.264141,-80.26512,202,302,Monday,July,30,2018
Valparaiso Police Department,Valparaiso,FL,Local Police Department,30.509653,-86.50008,10,14,Wednesday,August,1,2018
South Daytona City Police Department,Daytona Beach,FL,Local Police Department,29.181314,-81.007996,25,34,Monday,August,6,2018
Sanford Police Department,Sanford,FL,Local Police Department,28.804827,-81.27273,131,153,Friday,August,3,2018
Carrabelle Police Department,Carrabelle,FL,Local Police Department,29.853874,-84.6563,6,6,Tuesday,July,31,2018
Brighton Police Department,Brighton,CO,Local Police Department,39.973305,-104.78237,53,70,Wednesday,July,25,2018
Fort Morgan Police Department,Fort Morgan,CO,Local Police Department,40.25212,-103.78762,28,34,Tuesday,July,24,2018
Montrose Police Department,Montrose,CO,Local Police Department,38.479073,-107.87476,42,62,Wednesday,July,25,2018
Manitou Springs Police Department,Manitou Springs,CO,Local Police Department,38.857895,-104.91279,15,20,Wednesday,July,25,2018
Silt Police Department,Silt,CO,Local Police Department,39.54843,-107.656136,8,9,Wednesday,July,25,2018
Paonia Police Department,Paonia,CO,Local Police Department,38.86742,-107.598175,5,5,Wednesday,July,25,2018
Elizabeth Police Department,Elizabeth,CO,Local Police Department,39.358997,-104.595634,5,7,Tuesday,July,24,2018
Lone Tree Police Department,Lone Tree,CO,Local Police Department,39.552082,-104.881035,44,49,Wednesday,July,25,2018
Loveland Police Department,Loveland,CO,Local Police Department,40.400944,-105.06643,88,132,Wednesday,July,25,2018
Georgia Gwinnett College Police Dept.,Lawrenceville,GA,Special Jurisdiction,33.979565,-83.998604,5,17,Monday,August,13,2018
Bibb County Board Of Education Campus Police,Macon,GA,Special Jurisdiction,32.840946,-83.65841,28,33,Tuesday,August,7,2018
Zwolle Police Department,Zwolle,LA,Local Police Department,31.630604,-93.643036,5,7,Friday,February,15,2019
West Baton Rouge Parish Jail,Port Allen,LA,Sheriff'S Office,30.501331,-91.21638,183,183,Wednesday,February,13,2019
New Orleans City Park Police,New Orleans,LA,Special Jurisdiction,29.993254,-90.09811,2,2,Thursday,February,14,2019
Modoc County Sheriffs Department / Modoc County Jail,Alturas,CA,Sheriff'S Office,41.483727,-120.54074,14,28,Friday,July,13,2018
Newport Police Department,Newport,DE,Local Police Department,39.717064,-75.609695,8,9,Thursday,March,28,2019
Bridgton Police Department,Bridgton,ME,Local Police Department,44.055027,-70.703636,8,12,Thursday,March,7,2019
Henderson County Sheriffs Office,Henderson,KY,Sheriff'S Office,37.838818,-87.59194,20,24,Thursday,August,9,2018
Nez Perce County Sheriffs Office / Nez Perce County Adult Detention Center,Lewiston,ID,Sheriff'S Office,46.432446,-117.01789,25,40,Wednesday,September,5,2018
Elk Rapids Police Department,Elk Rapids,MI,Local Police Department,44.895878,-85.41134,5,5,Thursday,February,7,2019
Troy Police Department,Troy,ID,Local Police Department,46.734478,-116.7673,1,1,Wednesday,September,5,2018
Haysville Police Department,Haysville,KS,Local Police Department,37.56489,-97.353096,26,34,Friday,August,17,2018
Cottage City Police Department,Brentwood,MD,Local Police Department,38.9382,-76.95184,6,7,Tuesday,August,7,2018
Aberdeen Police Department,Aberdeen,ID,Local Police Department,42.94457,-112.839134,4,7,Friday,August,31,2018
Town Of Lincolnville Police Department,Lincolnville,ME,Local Police Department,44.29348,-69.11269,1,1,Thursday,March,7,2019
Taneytown Police Department,Taneytown,MD,Local Police Department,39.65756,-77.174614,12,13,Tuesday,August,7,2018
Pleasant Plains Police Department,Pleasant Plains,IL,Local Police Department,39.875595,-89.92217,0,0,Thursday,November,15,2018
Southern Illinois University Carbondale Police Department,Carbondale,IL,Special Jurisdiction,37.719566,-89.21415,36,54,Thursday,June,27,2019
